{
"type": "FeatureCollection",
"name": "model_tracks",
"crs": { "type": "name", "properties": { "name": "urn:ogc:def:crs:OGC:1.3:CRS84" } },
"features": [
{ "type": "Feature", "properties": { "Project Name": "Valdeporres", "Latitude": 43.037527, "Longitude": -3.836107 }, "geometry": { "type": "Point", "coordinates": [ -3.836107, 43.037527 ] } },
{ "type": "Feature", "properties": { "Project Name": "Delilah I Solar", "Latitude": 33.48016, "Longitude": -95.253616 }, "geometry": { "type": "Point", "coordinates": [ -95.253616, 33.48016 ] } },
{ "type": "Feature", "properties": { "Project Name": "Sacramento Valley Energy Center Solar", "Latitude": 38.483964, "Longitude": -120.900534 }, "geometry": { "type": "Point", "coordinates": [ -120.900534, 38.483964 ] } },
{ "type": "Feature", "properties": { "Project Name": "Canoneras y Ampliacion", "Latitude": 43.15245, "Longitude": -3.469935 }, "geometry": { "type": "Point", "coordinates": [ -3.469935, 43.15245 ] } },
{ "type": "Feature", "properties": { "Project Name": "Sage (UT)", "Latitude": 0.0, "Longitude": 0.0 }, "geometry": { "type": "Point", "coordinates": [ 0.0, 0.0 ] } },
{ "type": "Feature", "properties": { "Project Name": "Hackbarth Solar", "Latitude": 42.84936791, "Longitude": -88.91611924 }, "geometry": { "type": "Point", "coordinates": [ -88.91611924, 42.84936791 ] } },
{ "type": "Feature", "properties": { "Project Name": "CHAN DO TENÓN", "Latitude": 43.609226, "Longitude": -7.674996 }, "geometry": { "type": "Point", "coordinates": [ -7.674996, 43.609226 ] } },
{ "type": "Feature", "properties": { "Project Name": "Mason City Wind", "Latitude": 43.14069, "Longitude": -93.09848 }, "geometry": { "type": "Point", "coordinates": [ -93.09848, 43.14069 ] } },
{ "type": "Feature", "properties": { "Project Name": "Gibson Solar", "Latitude": 38.35532, "Longitude": -87.56752 }, "geometry": { "type": "Point", "coordinates": [ -87.56752, 38.35532 ] } },
{ "type": "Feature", "properties": { "Project Name": "Montfort Wind Park", "Latitude": 42.9717, "Longitude": -90.4332 }, "geometry": { "type": "Point", "coordinates": [ -90.4332, 42.9717 ] } },
{ "type": "Feature", "properties": { "Project Name": "Dermott Wind, LLC", "Latitude": 32.864167, "Longitude": -100.975 }, "geometry": { "type": "Point", "coordinates": [ -100.975, 32.864167 ] } },
{ "type": "Feature", "properties": { "Project Name": "Blue Cloud", "Latitude": 34.105654, "Longitude": -102.798135 }, "geometry": { "type": "Point", "coordinates": [ -102.798135, 34.105654 ] } },
{ "type": "Feature", "properties": { "Project Name": "Buffalo Gap 2", "Latitude": 0.0, "Longitude": 0.0 }, "geometry": { "type": "Point", "coordinates": [ 0.0, 0.0 ] } },
{ "type": "Feature", "properties": { "Project Name": "Persimmon Creek", "Latitude": 36.174266, "Longitude": -99.310417 }, "geometry": { "type": "Point", "coordinates": [ -99.310417, 36.174266 ] } },
{ "type": "Feature", "properties": { "Project Name": "Kingfisher Wind", "Latitude": 0.0, "Longitude": 0.0 }, "geometry": { "type": "Point", "coordinates": [ 0.0, 0.0 ] } },
{ "type": "Feature", "properties": { "Project Name": "Steel Sun 2", "Latitude": 42.80888, "Longitude": -78.85347 }, "geometry": { "type": "Point", "coordinates": [ -78.85347, 42.80888 ] } },
{ "type": "Feature", "properties": { "Project Name": "CORISCADA", "Latitude": 43.682573, "Longitude": -7.734336 }, "geometry": { "type": "Point", "coordinates": [ -7.734336, 43.682573 ] } },
{ "type": "Feature", "properties": { "Project Name": "Antigo Solar", "Latitude": 45.137646, "Longitude": -89.187261 }, "geometry": { "type": "Point", "coordinates": [ -89.187261, 45.137646 ] } },
{ "type": "Feature", "properties": { "Project Name": "IMS", "Latitude": 39.79805, "Longitude": -86.22328 }, "geometry": { "type": "Point", "coordinates": [ -86.22328, 39.79805 ] } },
{ "type": "Feature", "properties": { "Project Name": "Santa Theresa", "Latitude": 31.812256, "Longitude": -106.685711 }, "geometry": { "type": "Point", "coordinates": [ -106.685711, 31.812256 ] } },
{ "type": "Feature", "properties": { "Project Name": "Rocksprings Wind", "Latitude": 29.38918, "Longitude": -100.89547 }, "geometry": { "type": "Point", "coordinates": [ -100.89547, 29.38918 ] } },
{ "type": "Feature", "properties": { "Project Name": "Aurora", "Latitude": 43.73083, "Longitude": -98.76417 }, "geometry": { "type": "Point", "coordinates": [ -98.76417, 43.73083 ] } },
{ "type": "Feature", "properties": { "Project Name": "Whitla Wind", "Latitude": 49.64506, "Longitude": -111.28827 }, "geometry": { "type": "Point", "coordinates": [ -111.28827, 49.64506 ] } },
{ "type": "Feature", "properties": { "Project Name": "Kettleman", "Latitude": 36.06014, "Longitude": -119.94123 }, "geometry": { "type": "Point", "coordinates": [ -119.94123, 36.06014 ] } },
{ "type": "Feature", "properties": { "Project Name": "LEBOREIRO", "Latitude": 43.477319, "Longitude": -7.60264 }, "geometry": { "type": "Point", "coordinates": [ -7.60264, 43.477319 ] } },
{ "type": "Feature", "properties": { "Project Name": "Asturias", "Latitude": null, "Longitude": null }, "geometry": null },
{ "type": "Feature", "properties": { "Project Name": "Woodstock", "Latitude": 43.98583, "Longitude": -96.07861 }, "geometry": { "type": "Point", "coordinates": [ -96.07861, 43.98583 ] } },
{ "type": "Feature", "properties": { "Project Name": "White Mesa", "Latitude": 30.937555, "Longitude": -101.264536 }, "geometry": { "type": "Point", "coordinates": [ -101.264536, 30.937555 ] } },
{ "type": "Feature", "properties": { "Project Name": "Barren Ridge", "Latitude": 35.20473, "Longitude": -118.06875 }, "geometry": { "type": "Point", "coordinates": [ -118.06875, 35.20473 ] } },
{ "type": "Feature", "properties": { "Project Name": "Exodus Storage", "Latitude": 29.914568, "Longitude": -97.77465 }, "geometry": { "type": "Point", "coordinates": [ -97.77465, 29.914568 ] } },
{ "type": "Feature", "properties": { "Project Name": "Rocking R", "Latitude": 32.894811, "Longitude": -93.868752 }, "geometry": { "type": "Point", "coordinates": [ -93.868752, 32.894811 ] } },
{ "type": "Feature", "properties": { "Project Name": "PASTORIZA RODEIRO (12)", "Latitude": 43.315447, "Longitude": -7.426128 }, "geometry": { "type": "Point", "coordinates": [ -7.426128, 43.315447 ] } },
{ "type": "Feature", "properties": { "Project Name": "Algodon Solar", "Latitude": 32.985, "Longitude": -102.315 }, "geometry": { "type": "Point", "coordinates": [ -102.315, 32.985 ] } },
{ "type": "Feature", "properties": { "Project Name": "Five Points", "Latitude": 36.39538, "Longitude": -120.2417 }, "geometry": { "type": "Point", "coordinates": [ -120.2417, 36.39538 ] } },
{ "type": "Feature", "properties": { "Project Name": "Mississippi Solar 2", "Latitude": 0.0, "Longitude": 0.0 }, "geometry": { "type": "Point", "coordinates": [ 0.0, 0.0 ] } },
{ "type": "Feature", "properties": { "Project Name": "Astoria II", "Latitude": 34.83665, "Longitude": -118.4802 }, "geometry": { "type": "Point", "coordinates": [ -118.4802, 34.83665 ] } },
{ "type": "Feature", "properties": { "Project Name": "Sloughhouse", "Latitude": 38.4672631, "Longitude": -121.1756708 }, "geometry": { "type": "Point", "coordinates": [ -121.1756708, 38.4672631 ] } },
{ "type": "Feature", "properties": { "Project Name": "Akuo US Solar PV Park", "Latitude": null, "Longitude": null }, "geometry": null },
{ "type": "Feature", "properties": { "Project Name": "Rancho Seco II", "Latitude": 38.34277, "Longitude": -121.12362 }, "geometry": { "type": "Point", "coordinates": [ -121.12362, 38.34277 ] } },
{ "type": "Feature", "properties": { "Project Name": "PE VIMIANZO", "Latitude": 43.10971, "Longitude": -9.068503 }, "geometry": { "type": "Point", "coordinates": [ -9.068503, 43.10971 ] } },
{ "type": "Feature", "properties": { "Project Name": "Kingsbridge 1", "Latitude": 43.80092, "Longitude": -81.68043 }, "geometry": { "type": "Point", "coordinates": [ -81.68043, 43.80092 ] } },
{ "type": "Feature", "properties": { "Project Name": "Cadence Solar", "Latitude": 40.378008, "Longitude": -83.436872 }, "geometry": { "type": "Point", "coordinates": [ -83.436872, 40.378008 ] } },
{ "type": "Feature", "properties": { "Project Name": "Cedar Ridge", "Latitude": 0.0, "Longitude": 0.0 }, "geometry": { "type": "Point", "coordinates": [ 0.0, 0.0 ] } },
{ "type": "Feature", "properties": { "Project Name": "Red Horse 2 & 3 (Wind and Solar)", "Latitude": 0.0, "Longitude": 0.0 }, "geometry": { "type": "Point", "coordinates": [ 0.0, 0.0 ] } },
{ "type": "Feature", "properties": { "Project Name": "Badger Hollow Wind", "Latitude": 42.934815, "Longitude": -90.406001 }, "geometry": { "type": "Point", "coordinates": [ -90.406001, 42.934815 ] } },
{ "type": "Feature", "properties": { "Project Name": "Ringer Hill Wind", "Latitude": 39.76607, "Longitude": -79.193 }, "geometry": { "type": "Point", "coordinates": [ -79.193, 39.76607 ] } },
{ "type": "Feature", "properties": { "Project Name": "Lafayette", "Latitude": 32.90204, "Longitude": -85.3979 }, "geometry": { "type": "Point", "coordinates": [ -85.3979, 32.90204 ] } },
{ "type": "Feature", "properties": { "Project Name": "Wagon Wheel Wind", "Latitude": 36.153333, "Longitude": -97.575 }, "geometry": { "type": "Point", "coordinates": [ -97.575, 36.153333 ] } },
{ "type": "Feature", "properties": { "Project Name": "Saratoga Solar - Duplicate", "Latitude": 42.69074, "Longitude": -90.72291 }, "geometry": { "type": "Point", "coordinates": [ -90.72291, 42.69074 ] } },
{ "type": "Feature", "properties": { "Project Name": "Power County Wind Park", "Latitude": 42.720674, "Longitude": -112.754043 }, "geometry": { "type": "Point", "coordinates": [ -112.754043, 42.720674 ] } },
{ "type": "Feature", "properties": { "Project Name": "Piney Woods", "Latitude": 30.718683, "Longitude": -95.66965 }, "geometry": { "type": "Point", "coordinates": [ -95.66965, 30.718683 ] } },
{ "type": "Feature", "properties": { "Project Name": "A Capelada I", "Latitude": 43.690686, "Longitude": -7.958235 }, "geometry": { "type": "Point", "coordinates": [ -7.958235, 43.690686 ] } },
{ "type": "Feature", "properties": { "Project Name": "Dover SUN Solar Park", "Latitude": 39.153231, "Longitude": -75.548407 }, "geometry": { "type": "Point", "coordinates": [ -75.548407, 39.153231 ] } },
{ "type": "Feature", "properties": { "Project Name": "Grand Meadow", "Latitude": 43.7189, "Longitude": -92.705 }, "geometry": { "type": "Point", "coordinates": [ -92.705, 43.7189 ] } },
{ "type": "Feature", "properties": { "Project Name": "Astoria I", "Latitude": 34.84423, "Longitude": -118.45847 }, "geometry": { "type": "Point", "coordinates": [ -118.45847, 34.84423 ] } },
{ "type": "Feature", "properties": { "Project Name": "Pioneer Trail", "Latitude": 40.464907, "Longitude": -88.054347 }, "geometry": { "type": "Point", "coordinates": [ -88.054347, 40.464907 ] } },
{ "type": "Feature", "properties": { "Project Name": "Centinela Solar Energy", "Latitude": 32.786142, "Longitude": -115.591547 }, "geometry": { "type": "Point", "coordinates": [ -115.591547, 32.786142 ] } },
{ "type": "Feature", "properties": { "Project Name": "Port Dover & Nanticoke", "Latitude": 42.845608, "Longitude": -79.992724 }, "geometry": { "type": "Point", "coordinates": [ -79.992724, 42.845608 ] } },
{ "type": "Feature", "properties": { "Project Name": "Escalade Wind Farm", "Latitude": 33.77092, "Longitude": -99.65852 }, "geometry": { "type": "Point", "coordinates": [ -99.65852, 33.77092 ] } },
{ "type": "Feature", "properties": { "Project Name": "Mariah North", "Latitude": 0.0, "Longitude": 0.0 }, "geometry": { "type": "Point", "coordinates": [ 0.0, 0.0 ] } },
{ "type": "Feature", "properties": { "Project Name": "Electra Wind", "Latitude": 33.907626, "Longitude": -98.535168 }, "geometry": { "type": "Point", "coordinates": [ -98.535168, 33.907626 ] } },
{ "type": "Feature", "properties": { "Project Name": "Foothills II", "Latitude": 32.646355, "Longitude": -114.426104 }, "geometry": { "type": "Point", "coordinates": [ -114.426104, 32.646355 ] } },
{ "type": "Feature", "properties": { "Project Name": "Asa Branca", "Latitude": -5.27691, "Longitude": -35.9735 }, "geometry": { "type": "Point", "coordinates": [ -35.9735, -5.27691 ] } },
{ "type": "Feature", "properties": { "Project Name": "Big Timber", "Latitude": 45.85543, "Longitude": -109.64917 }, "geometry": { "type": "Point", "coordinates": [ -109.64917, 45.85543 ] } },
{ "type": "Feature", "properties": { "Project Name": "Madison Fields", "Latitude": 40.0, "Longitude": -83.0 }, "geometry": { "type": "Point", "coordinates": [ -83.0, 40.0 ] } },
{ "type": "Feature", "properties": { "Project Name": "CASTELO", "Latitude": 43.102646, "Longitude": -8.708259 }, "geometry": { "type": "Point", "coordinates": [ -8.708259, 43.102646 ] } },
{ "type": "Feature", "properties": { "Project Name": "Pleasant Prairie Solar", "Latitude": 39.944801, "Longitude": -83.203969 }, "geometry": { "type": "Point", "coordinates": [ -83.203969, 39.944801 ] } },
{ "type": "Feature", "properties": { "Project Name": "Sacramento Valley Energy Center Storage", "Latitude": 38.483964, "Longitude": -120.900534 }, "geometry": { "type": "Point", "coordinates": [ -120.900534, 38.483964 ] } },
{ "type": "Feature", "properties": { "Project Name": "Cañoneras", "Latitude": 43.14483333, "Longitude": -3.49580556 }, "geometry": { "type": "Point", "coordinates": [ -3.49580556, 43.14483333 ] } },
{ "type": "Feature", "properties": { "Project Name": "Danielson Wind", "Latitude": 0.0, "Longitude": 0.0 }, "geometry": { "type": "Point", "coordinates": [ 0.0, 0.0 ] } },
{ "type": "Feature", "properties": { "Project Name": "Sunlight", "Latitude": 30.735661, "Longitude": -89.877668 }, "geometry": { "type": "Point", "coordinates": [ -89.877668, 30.735661 ] } },
{ "type": "Feature", "properties": { "Project Name": "Hardin II Solar", "Latitude": 40.628438, "Longitude": -83.822162 }, "geometry": { "type": "Point", "coordinates": [ -83.822162, 40.628438 ] } },
{ "type": "Feature", "properties": { "Project Name": "Petersburg Wind", "Latitude": 0.0, "Longitude": 0.0 }, "geometry": { "type": "Point", "coordinates": [ 0.0, 0.0 ] } },
{ "type": "Feature", "properties": { "Project Name": "MidAm Knoxville", "Latitude": 41.31806, "Longitude": -93.06248 }, "geometry": { "type": "Point", "coordinates": [ -93.06248, 41.31806 ] } },
{ "type": "Feature", "properties": { "Project Name": "Sterling Wind", "Latitude": 33.28687, "Longitude": -103.28175 }, "geometry": { "type": "Point", "coordinates": [ -103.28175, 33.28687 ] } },
{ "type": "Feature", "properties": { "Project Name": "FALADOIRA", "Latitude": 43.525831, "Longitude": -7.812439 }, "geometry": { "type": "Point", "coordinates": [ -7.812439, 43.525831 ] } },
{ "type": "Feature", "properties": { "Project Name": "Hardin III Solar", "Latitude": 40.682326, "Longitude": -83.793884 }, "geometry": { "type": "Point", "coordinates": [ -83.793884, 40.682326 ] } },
{ "type": "Feature", "properties": { "Project Name": "Adams Wind", "Latitude": 0.0, "Longitude": 0.0 }, "geometry": { "type": "Point", "coordinates": [ 0.0, 0.0 ] } },
{ "type": "Feature", "properties": { "Project Name": "Auwahi", "Latitude": 20.596, "Longitude": -156.318 }, "geometry": { "type": "Point", "coordinates": [ -156.318, 20.596 ] } },
{ "type": "Feature", "properties": { "Project Name": "Gila Bend", "Latitude": 32.94765, "Longitude": -112.769167 }, "geometry": { "type": "Point", "coordinates": [ -112.769167, 32.94765 ] } },
{ "type": "Feature", "properties": { "Project Name": "Quality Wind", "Latitude": 55.098998, "Longitude": -120.993977 }, "geometry": { "type": "Point", "coordinates": [ -120.993977, 55.098998 ] } },
{ "type": "Feature", "properties": { "Project Name": "Settler's Trail", "Latitude": 40.762634, "Longitude": -87.544985 }, "geometry": { "type": "Point", "coordinates": [ -87.544985, 40.762634 ] } },
{ "type": "Feature", "properties": { "Project Name": "La Magdalena", "Latitude": 43.037527, "Longitude": -3.836107 }, "geometry": { "type": "Point", "coordinates": [ -3.836107, 43.037527 ] } },
{ "type": "Feature", "properties": { "Project Name": "Towner III Wind", "Latitude": 38.390422, "Longitude": -102.310656 }, "geometry": { "type": "Point", "coordinates": [ -102.310656, 38.390422 ] } },
{ "type": "Feature", "properties": { "Project Name": "Borja I (Viesgo)", "Latitude": 41.82997222, "Longitude": -1.53 }, "geometry": { "type": "Point", "coordinates": [ -1.53, 41.82997222 ] } },
{ "type": "Feature", "properties": { "Project Name": "Raymond Solar", "Latitude": 42.7618516, "Longitude": -88.0522178 }, "geometry": { "type": "Point", "coordinates": [ -88.0522178, 42.7618516 ] } },
{ "type": "Feature", "properties": { "Project Name": "As Pontes", "Latitude": null, "Longitude": null }, "geometry": null },
{ "type": "Feature", "properties": { "Project Name": "La cotera", "Latitude": 43.037527, "Longitude": -3.836107 }, "geometry": { "type": "Point", "coordinates": [ -3.836107, 43.037527 ] } },
{ "type": "Feature", "properties": { "Project Name": "Hardy Hills Solar", "Latitude": 40.337721, "Longitude": -86.505601 }, "geometry": { "type": "Point", "coordinates": [ -86.505601, 40.337721 ] } },
{ "type": "Feature", "properties": { "Project Name": "Judith Gap I Wind", "Latitude": 46.571287, "Longitude": -109.745933 }, "geometry": { "type": "Point", "coordinates": [ -109.745933, 46.571287 ] } },
{ "type": "Feature", "properties": { "Project Name": "Auburn Solar", "Latitude": 43.60019224, "Longitude": -88.24012367 }, "geometry": { "type": "Point", "coordinates": [ -88.24012367, 43.60019224 ] } },
{ "type": "Feature", "properties": { "Project Name": "PE LOS LANCES", "Latitude": 36.077583, "Longitude": -5.658 }, "geometry": { "type": "Point", "coordinates": [ -5.658, 36.077583 ] } },
{ "type": "Feature", "properties": { "Project Name": "Cotton Center Storage", "Latitude": 33.0344, "Longitude": -112.661817 }, "geometry": { "type": "Point", "coordinates": [ -112.661817, 33.0344 ] } },
{ "type": "Feature", "properties": { "Project Name": "Paradela (12)", "Latitude": 42.71666, "Longitude": -7.596472 }, "geometry": { "type": "Point", "coordinates": [ -7.596472, 42.71666 ] } },
{ "type": "Feature", "properties": { "Project Name": "Santa Brigida Wind Complex", "Latitude": -8.49792, "Longitude": -36.94336 }, "geometry": { "type": "Point", "coordinates": [ -36.94336, -8.49792 ] } },
{ "type": "Feature", "properties": { "Project Name": "Brule County Wind", "Latitude": 43.717, "Longitude": -98.922 }, "geometry": { "type": "Point", "coordinates": [ -98.922, 43.717 ] } },
{ "type": "Feature", "properties": { "Project Name": "Le Plateau II Wind", "Latitude": 48.012736, "Longitude": -67.43755 }, "geometry": { "type": "Point", "coordinates": [ -67.43755, 48.012736 ] } },
{ "type": "Feature", "properties": { "Project Name": "Gravel Pit", "Latitude": 41.90907, "Longitude": -72.55541 }, "geometry": { "type": "Point", "coordinates": [ -72.55541, 41.90907 ] } },
{ "type": "Feature", "properties": { "Project Name": "Curiscao & Pumar", "Latitude": 43.30404, "Longitude": -6.15449 }, "geometry": { "type": "Point", "coordinates": [ -6.15449, 43.30404 ] } },
{ "type": "Feature", "properties": { "Project Name": "Paradela", "Latitude": 42.76472222, "Longitude": -7.57011111 }, "geometry": { "type": "Point", "coordinates": [ -7.57011111, 42.76472222 ] } },
{ "type": "Feature", "properties": { "Project Name": "Pe Somozas", "Latitude": 43.529939, "Longitude": -7.899415 }, "geometry": { "type": "Point", "coordinates": [ -7.899415, 43.529939 ] } },
{ "type": "Feature", "properties": { "Project Name": "Foothills Storage", "Latitude": 32.646355, "Longitude": -114.426104 }, "geometry": { "type": "Point", "coordinates": [ -114.426104, 32.646355 ] } },
{ "type": "Feature", "properties": { "Project Name": "Serra das Penas (12)", "Latitude": 42.71666, "Longitude": -7.596472 }, "geometry": { "type": "Point", "coordinates": [ -7.596472, 42.71666 ] } },
{ "type": "Feature", "properties": { "Project Name": "Alta Luna Solar", "Latitude": 0.0, "Longitude": 0.0 }, "geometry": { "type": "Point", "coordinates": [ 0.0, 0.0 ] } },
{ "type": "Feature", "properties": { "Project Name": "Contrail", "Latitude": 40.597222, "Longitude": -94.901944 }, "geometry": { "type": "Point", "coordinates": [ -94.901944, 40.597222 ] } },
{ "type": "Feature", "properties": { "Project Name": "Maple Flats Solar", "Latitude": 38.75, "Longitude": -88.553 }, "geometry": { "type": "Point", "coordinates": [ -88.553, 38.75 ] } },
{ "type": "Feature", "properties": { "Project Name": "PENA VENTOSA", "Latitude": 43.609226, "Longitude": -7.674996 }, "geometry": { "type": "Point", "coordinates": [ -7.674996, 43.609226 ] } },
{ "type": "Feature", "properties": { "Project Name": "Shenandoah Hills Wind", "Latitude": 40.604, "Longitude": -95.275 }, "geometry": { "type": "Point", "coordinates": [ -95.275, 40.604 ] } },
{ "type": "Feature", "properties": { "Project Name": "Valley View", "Latitude": 43.90275, "Longitude": -96.02174 }, "geometry": { "type": "Point", "coordinates": [ -96.02174, 43.90275 ] } },
{ "type": "Feature", "properties": { "Project Name": "Heartwood", "Latitude": 41.985499, "Longitude": -84.695045 }, "geometry": { "type": "Point", "coordinates": [ -84.695045, 41.985499 ] } },
{ "type": "Feature", "properties": { "Project Name": "Catclaw Solar", "Latitude": 33.58, "Longitude": -112.7 }, "geometry": { "type": "Point", "coordinates": [ -112.7, 33.58 ] } },
{ "type": "Feature", "properties": { "Project Name": "Century Wind", "Latitude": 42.547889, "Longitude": -93.676417 }, "geometry": { "type": "Point", "coordinates": [ -93.676417, 42.547889 ] } },
{ "type": "Feature", "properties": { "Project Name": "Crane Creek Wind Farm", "Latitude": 43.3639, "Longitude": -92.5541 }, "geometry": { "type": "Point", "coordinates": [ -92.5541, 43.3639 ] } },
{ "type": "Feature", "properties": { "Project Name": "Jayhawk", "Latitude": 37.703852, "Longitude": -94.986139 }, "geometry": { "type": "Point", "coordinates": [ -94.986139, 37.703852 ] } },
{ "type": "Feature", "properties": { "Project Name": "TOURIÑÁN", "Latitude": 43.277252, "Longitude": -7.987681 }, "geometry": { "type": "Point", "coordinates": [ -7.987681, 43.277252 ] } },
{ "type": "Feature", "properties": { "Project Name": "Ventos de São Zacarias", "Latitude": -7.381436, "Longitude": -40.392515 }, "geometry": { "type": "Point", "coordinates": [ -40.392515, -7.381436 ] } },
{ "type": "Feature", "properties": { "Project Name": "Lancaster", "Latitude": 34.68597, "Longitude": -118.09007 }, "geometry": { "type": "Point", "coordinates": [ -118.09007, 34.68597 ] } },
{ "type": "Feature", "properties": { "Project Name": "Bennington Wind", "Latitude": 40.96038, "Longitude": -89.08536 }, "geometry": { "type": "Point", "coordinates": [ -89.08536, 40.96038 ] } },
{ "type": "Feature", "properties": { "Project Name": "Chester", "Latitude": 37.505118, "Longitude": -77.423109 }, "geometry": { "type": "Point", "coordinates": [ -77.423109, 37.505118 ] } },
{ "type": "Feature", "properties": { "Project Name": "Alto da Folgorosa", "Latitude": 39.105556, "Longitude": -9.167639 }, "geometry": { "type": "Point", "coordinates": [ -9.167639, 39.105556 ] } },
{ "type": "Feature", "properties": { "Project Name": "Boomtown Solar", "Latitude": 38.18222, "Longitude": -88.198452 }, "geometry": { "type": "Point", "coordinates": [ -88.198452, 38.18222 ] } },
{ "type": "Feature", "properties": { "Project Name": "High Noon Solar", "Latitude": 43.35326, "Longitude": -89.34738 }, "geometry": { "type": "Point", "coordinates": [ -89.34738, 43.35326 ] } },
{ "type": "Feature", "properties": { "Project Name": "BARBANZA II", "Latitude": 42.669489, "Longitude": -8.96018 }, "geometry": { "type": "Point", "coordinates": [ -8.96018, 42.669489 ] } },
{ "type": "Feature", "properties": { "Project Name": "BARBANZA I", "Latitude": 42.669489, "Longitude": -8.96018 }, "geometry": { "type": "Point", "coordinates": [ -8.96018, 42.669489 ] } },
{ "type": "Feature", "properties": { "Project Name": "Linden Wind Energy Center", "Latitude": 45.741192, "Longitude": -120.760377 }, "geometry": { "type": "Point", "coordinates": [ -120.760377, 45.741192 ] } },
{ "type": "Feature", "properties": { "Project Name": "Horsepower - BE II", "Latitude": 42.601057, "Longitude": -84.368436 }, "geometry": { "type": "Point", "coordinates": [ -84.368436, 42.601057 ] } },
{ "type": "Feature", "properties": { "Project Name": "Yuma Solar + Storage", "Latitude": 32.642434, "Longitude": -114.429217 }, "geometry": { "type": "Point", "coordinates": [ -114.429217, 32.642434 ] } },
{ "type": "Feature", "properties": { "Project Name": "Brazoria West", "Latitude": 29.217578, "Longitude": -95.658293 }, "geometry": { "type": "Point", "coordinates": [ -95.658293, 29.217578 ] } },
{ "type": "Feature", "properties": { "Project Name": "Lakeland Solar", "Latitude": 31.027, "Longitude": -83.054 }, "geometry": { "type": "Point", "coordinates": [ -83.054, 31.027 ] } },
{ "type": "Feature", "properties": { "Project Name": "Red Lake Falls", "Latitude": 47.86926, "Longitude": -96.31896 }, "geometry": { "type": "Point", "coordinates": [ -96.31896, 47.86926 ] } },
{ "type": "Feature", "properties": { "Project Name": "Sage (CIP)", "Latitude": 0.0, "Longitude": 0.0 }, "geometry": { "type": "Point", "coordinates": [ 0.0, 0.0 ] } },
{ "type": "Feature", "properties": { "Project Name": "Koshkonong Solar", "Latitude": 42.976875, "Longitude": -89.072086 }, "geometry": { "type": "Point", "coordinates": [ -89.072086, 42.976875 ] } },
{ "type": "Feature", "properties": { "Project Name": "Carne", "Latitude": 32.31478, "Longitude": -107.0 }, "geometry": { "type": "Point", "coordinates": [ -107.0, 32.31478 ] } },
{ "type": "Feature", "properties": { "Project Name": "Tatanka Ridge", "Latitude": 44.66785, "Longitude": -96.63072 }, "geometry": { "type": "Point", "coordinates": [ -96.63072, 44.66785 ] } },
{ "type": "Feature", "properties": { "Project Name": "Rosewater Wind", "Latitude": 40.75, "Longitude": -86.86 }, "geometry": { "type": "Point", "coordinates": [ -86.86, 40.75 ] } },
{ "type": "Feature", "properties": { "Project Name": "Caledonia Solar", "Latitude": 42.80069619, "Longitude": -87.96529559 }, "geometry": { "type": "Point", "coordinates": [ -87.96529559, 42.80069619 ] } },
{ "type": "Feature", "properties": { "Project Name": "Heartland Farms Wind", "Latitude": 43.213889, "Longitude": -84.633056 }, "geometry": { "type": "Point", "coordinates": [ -84.633056, 43.213889 ] } },
{ "type": "Feature", "properties": { "Project Name": "Lafayette Solar", "Latitude": 42.7021437, "Longitude": -88.528277 }, "geometry": { "type": "Point", "coordinates": [ -88.528277, 42.7021437 ] } },
{ "type": "Feature", "properties": { "Project Name": "Lamesa II", "Latitude": 32.70866, "Longitude": -101.882673 }, "geometry": { "type": "Point", "coordinates": [ -101.882673, 32.70866 ] } },
{ "type": "Feature", "properties": { "Project Name": "Tusket Wind", "Latitude": 43.887, "Longitude": -65.78 }, "geometry": { "type": "Point", "coordinates": [ -65.78, 43.887 ] } },
{ "type": "Feature", "properties": { "Project Name": "Skyline Renewables - Wind RFP (3)", "Latitude": 39.76607, "Longitude": -79.193 }, "geometry": { "type": "Point", "coordinates": [ -79.193, 39.76607 ] } },
{ "type": "Feature", "properties": { "Project Name": "Paris Solar", "Latitude": 42.664217, "Longitude": -88.013108 }, "geometry": { "type": "Point", "coordinates": [ -88.013108, 42.664217 ] } },
{ "type": "Feature", "properties": { "Project Name": "Cardal Transmission", "Latitude": null, "Longitude": null }, "geometry": null },
{ "type": "Feature", "properties": { "Project Name": "Mingorubio", "Latitude": 38.932111, "Longitude": -2.284 }, "geometry": { "type": "Point", "coordinates": [ -2.284, 38.932111 ] } },
{ "type": "Feature", "properties": { "Project Name": "Castle Gap", "Latitude": 31.338734, "Longitude": -98.391298 }, "geometry": { "type": "Point", "coordinates": [ -98.391298, 31.338734 ] } },
{ "type": "Feature", "properties": { "Project Name": "Grimes County Solar", "Latitude": 30.656628, "Longitude": -96.07537 }, "geometry": { "type": "Point", "coordinates": [ -96.07537, 30.656628 ] } },
{ "type": "Feature", "properties": { "Project Name": "Nudo de Asturias ", "Latitude": 43.435732, "Longitude": -6.656306 }, "geometry": { "type": "Point", "coordinates": [ -6.656306, 43.435732 ] } },
{ "type": "Feature", "properties": { "Project Name": "Coyote Ridge", "Latitude": 44.40471, "Longitude": -96.71615 }, "geometry": { "type": "Point", "coordinates": [ -96.71615, 44.40471 ] } },
{ "type": "Feature", "properties": { "Project Name": "Prairie Breeze II", "Latitude": 41.969984, "Longitude": -97.91573 }, "geometry": { "type": "Point", "coordinates": [ -97.91573, 41.969984 ] } },
{ "type": "Feature", "properties": { "Project Name": "Crossroads", "Latitude": 36.03688, "Longitude": -98.71475 }, "geometry": { "type": "Point", "coordinates": [ -98.71475, 36.03688 ] } },
{ "type": "Feature", "properties": { "Project Name": "Monciro (12)", "Latitude": 43.070208, "Longitude": -7.344961 }, "geometry": { "type": "Point", "coordinates": [ -7.344961, 43.070208 ] } },
{ "type": "Feature", "properties": { "Project Name": "Flat Ridge IV Wind", "Latitude": 37.39, "Longitude": -98.03 }, "geometry": { "type": "Point", "coordinates": [ -98.03, 37.39 ] } },
{ "type": "Feature", "properties": { "Project Name": "Sherbino II", "Latitude": 30.86116, "Longitude": -102.93286 }, "geometry": { "type": "Point", "coordinates": [ -102.93286, 30.86116 ] } },
{ "type": "Feature", "properties": { "Project Name": "Power County Wind - old", "Latitude": 0.0, "Longitude": 0.0 }, "geometry": { "type": "Point", "coordinates": [ 0.0, 0.0 ] } },
{ "type": "Feature", "properties": { "Project Name": "Sierra Del Madero I & II", "Latitude": null, "Longitude": null }, "geometry": null },
{ "type": "Feature", "properties": { "Project Name": "Victory Wind", "Latitude": 42.132375, "Longitude": -95.093202 }, "geometry": { "type": "Point", "coordinates": [ -95.093202, 42.132375 ] } },
{ "type": "Feature", "properties": { "Project Name": "Sabal Palm Solar", "Latitude": 28.111374, "Longitude": -81.114271 }, "geometry": { "type": "Point", "coordinates": [ -81.114271, 28.111374 ] } },
{ "type": "Feature", "properties": { "Project Name": "Illinois Solar & Storage", "Latitude": 0.0, "Longitude": 0.0 }, "geometry": { "type": "Point", "coordinates": [ 0.0, 0.0 ] } },
{ "type": "Feature", "properties": { "Project Name": "Darien Solar", "Latitude": 42.61698, "Longitude": -88.73594 }, "geometry": { "type": "Point", "coordinates": [ -88.73594, 42.61698 ] } },
{ "type": "Feature", "properties": { "Project Name": "Gila Bend II", "Latitude": 32.94765, "Longitude": -112.769167 }, "geometry": { "type": "Point", "coordinates": [ -112.769167, 32.94765 ] } },
{ "type": "Feature", "properties": { "Project Name": "Paris Storage", "Latitude": 42.6544, "Longitude": -88.0077 }, "geometry": { "type": "Point", "coordinates": [ -88.0077, 42.6544 ] } },
{ "type": "Feature", "properties": { "Project Name": "Cyclone Solar", "Latitude": 42.024069, "Longitude": -91.828405 }, "geometry": { "type": "Point", "coordinates": [ -91.828405, 42.024069 ] } },
{ "type": "Feature", "properties": { "Project Name": "SERRA DO PUNAGO-VACARIZA (12)", "Latitude": 42.991049, "Longitude": -7.260048 }, "geometry": { "type": "Point", "coordinates": [ -7.260048, 42.991049 ] } },
{ "type": "Feature", "properties": { "Project Name": "Macdonald Solar", "Latitude": 0.0, "Longitude": 0.0 }, "geometry": { "type": "Point", "coordinates": [ 0.0, 0.0 ] } },
{ "type": "Feature", "properties": { "Project Name": "California Ridge I", "Latitude": 40.214165, "Longitude": -87.89035 }, "geometry": { "type": "Point", "coordinates": [ -87.89035, 40.214165 ] } },
{ "type": "Feature", "properties": { "Project Name": "Huntington Wind", "Latitude": 44.367, "Longitude": -117.344 }, "geometry": { "type": "Point", "coordinates": [ -117.344, 44.367 ] } },
{ "type": "Feature", "properties": { "Project Name": "Orchard Wind", "Latitude": 45.44395, "Longitude": -119.69671 }, "geometry": { "type": "Point", "coordinates": [ -119.69671, 45.44395 ] } },
{ "type": "Feature", "properties": { "Project Name": "Penouta", "Latitude": 43.446492, "Longitude": -6.82992 }, "geometry": { "type": "Point", "coordinates": [ -6.82992, 43.446492 ] } },
{ "type": "Feature", "properties": { "Project Name": "Dry Lake Solar", "Latitude": 36.425999, "Longitude": -114.922804 }, "geometry": { "type": "Point", "coordinates": [ -114.922804, 36.425999 ] } },
{ "type": "Feature", "properties": { "Project Name": "Alta Luna", "Latitude": 32.56413, "Longitude": -107.46672 }, "geometry": { "type": "Point", "coordinates": [ -107.46672, 32.56413 ] } },
{ "type": "Feature", "properties": { "Project Name": "Imperial Valley Solar", "Latitude": 0.0, "Longitude": 0.0 }, "geometry": { "type": "Point", "coordinates": [ 0.0, 0.0 ] } },
{ "type": "Feature", "properties": { "Project Name": "Serra da Loba", "Latitude": 43.28301, "Longitude": -7.946368 }, "geometry": { "type": "Point", "coordinates": [ -7.946368, 43.28301 ] } },
{ "type": "Feature", "properties": { "Project Name": "Jacumba Solar Energy Center", "Latitude": 32.624172, "Longitude": -116.12731 }, "geometry": { "type": "Point", "coordinates": [ -116.12731, 32.624172 ] } },
{ "type": "Feature", "properties": { "Project Name": "Traverse", "Latitude": 35.715848, "Longitude": -98.667845 }, "geometry": { "type": "Point", "coordinates": [ -98.667845, 35.715848 ] } },
{ "type": "Feature", "properties": { "Project Name": "ShowMeState", "Latitude": 38.951995, "Longitude": -91.948825 }, "geometry": { "type": "Point", "coordinates": [ -91.948825, 38.951995 ] } },
{ "type": "Feature", "properties": { "Project Name": "Buffalo Mountain Wind", "Latitude": 36.120295, "Longitude": -84.337186 }, "geometry": { "type": "Point", "coordinates": [ -84.337186, 36.120295 ] } },
{ "type": "Feature", "properties": { "Project Name": "Samson III", "Latitude": 33.45339, "Longitude": -95.375383 }, "geometry": { "type": "Point", "coordinates": [ -95.375383, 33.45339 ] } },
{ "type": "Feature", "properties": { "Project Name": "Samson", "Latitude": 33.45339, "Longitude": -95.375383 }, "geometry": { "type": "Point", "coordinates": [ -95.375383, 33.45339 ] } },
{ "type": "Feature", "properties": { "Project Name": "Barao de sao joao", "Latitude": 37.134139, "Longitude": -8.798278 }, "geometry": { "type": "Point", "coordinates": [ -8.798278, 37.134139 ] } },
{ "type": "Feature", "properties": { "Project Name": "Trade Post Solar", "Latitude": 39.238271, "Longitude": -87.511328 }, "geometry": { "type": "Point", "coordinates": [ -87.511328, 39.238271 ] } },
{ "type": "Feature", "properties": { "Project Name": "Trinity Hills", "Latitude": 33.42084, "Longitude": -98.63445 }, "geometry": { "type": "Point", "coordinates": [ -98.63445, 33.42084 ] } },
{ "type": "Feature", "properties": { "Project Name": "Paloma", "Latitude": 33.02145, "Longitude": -112.661817 }, "geometry": { "type": "Point", "coordinates": [ -112.661817, 33.02145 ] } },
{ "type": "Feature", "properties": { "Project Name": "Stephen's Ranch", "Latitude": 0.0, "Longitude": 0.0 }, "geometry": { "type": "Point", "coordinates": [ 0.0, 0.0 ] } },
{ "type": "Feature", "properties": { "Project Name": "Roadrunner Thermal", "Latitude": 35.811138, "Longitude": -108.368845 }, "geometry": { "type": "Point", "coordinates": [ -108.368845, 35.811138 ] } },
{ "type": "Feature", "properties": { "Project Name": "Assembly Solar II", "Latitude": 43.04372, "Longitude": -83.96 }, "geometry": { "type": "Point", "coordinates": [ -83.96, 43.04372 ] } },
{ "type": "Feature", "properties": { "Project Name": "Energia Del Pacifico Thermal", "Latitude": 13.583, "Longitude": -89.828802 }, "geometry": { "type": "Point", "coordinates": [ -89.828802, 13.583 ] } },
{ "type": "Feature", "properties": { "Project Name": "Cedar Creek II", "Latitude": 40.86782, "Longitude": -104.20643 }, "geometry": { "type": "Point", "coordinates": [ -104.20643, 40.86782 ] } },
{ "type": "Feature", "properties": { "Project Name": "Desert Star Storage", "Latitude": 33.1437, "Longitude": -112.663267 }, "geometry": { "type": "Point", "coordinates": [ -112.663267, 33.1437 ] } },
{ "type": "Feature", "properties": { "Project Name": "Rancho Seco I", "Latitude": 38.34422, "Longitude": -121.11711 }, "geometry": { "type": "Point", "coordinates": [ -121.11711, 38.34422 ] } },
{ "type": "Feature", "properties": { "Project Name": "Coto Teixido", "Latitude": 43.525831, "Longitude": -7.812439 }, "geometry": { "type": "Point", "coordinates": [ -7.812439, 43.525831 ] } },
{ "type": "Feature", "properties": { "Project Name": "Sauk Valley Hydrogen", "Latitude": 41.774452, "Longitude": -89.606826 }, "geometry": { "type": "Point", "coordinates": [ -89.606826, 41.774452 ] } },
{ "type": "Feature", "properties": { "Project Name": "Copper Crossing", "Latitude": 33.15983, "Longitude": -111.48143 }, "geometry": { "type": "Point", "coordinates": [ -111.48143, 33.15983 ] } },
{ "type": "Feature", "properties": { "Project Name": "A Capelada II", "Latitude": 43.690686, "Longitude": -7.958235 }, "geometry": { "type": "Point", "coordinates": [ -7.958235, 43.690686 ] } },
{ "type": "Feature", "properties": { "Project Name": "Tippecanoe", "Latitude": 40.212824, "Longitude": -86.992005 }, "geometry": { "type": "Point", "coordinates": [ -86.992005, 40.212824 ] } },
{ "type": "Feature", "properties": { "Project Name": "Assembly Solar I", "Latitude": 43.0227, "Longitude": -83.9453 }, "geometry": { "type": "Point", "coordinates": [ -83.9453, 43.0227 ] } },
{ "type": "Feature", "properties": { "Project Name": "Grallas", "Latitude": 43.357227, "Longitude": -6.923784 }, "geometry": { "type": "Point", "coordinates": [ -6.923784, 43.357227 ] } },
{ "type": "Feature", "properties": { "Project Name": "Bartonsville", "Latitude": 39.088776, "Longitude": -78.240022 }, "geometry": { "type": "Point", "coordinates": [ -78.240022, 39.088776 ] } },
{ "type": "Feature", "properties": { "Project Name": "Flat Ridge V Wind", "Latitude": 37.39, "Longitude": -98.03 }, "geometry": { "type": "Point", "coordinates": [ -98.03, 37.39 ] } },
{ "type": "Feature", "properties": { "Project Name": "Rock Creek Wind", "Latitude": 41.603723, "Longitude": -106.130578 }, "geometry": { "type": "Point", "coordinates": [ -106.130578, 41.603723 ] } },
{ "type": "Feature", "properties": { "Project Name": "Turkey Track", "Latitude": 32.201266, "Longitude": -100.242403 }, "geometry": { "type": "Point", "coordinates": [ -100.242403, 32.201266 ] } },
{ "type": "Feature", "properties": { "Project Name": "Sapphire Sky Wind", "Latitude": 40.336903, "Longitude": -88.530211 }, "geometry": { "type": "Point", "coordinates": [ -88.530211, 40.336903 ] } },
{ "type": "Feature", "properties": { "Project Name": "Nobles", "Latitude": 0.0, "Longitude": 0.0 }, "geometry": { "type": "Point", "coordinates": [ 0.0, 0.0 ] } },
{ "type": "Feature", "properties": { "Project Name": "Grand Ridge I Wind", "Latitude": 41.226076, "Longitude": -88.701113 }, "geometry": { "type": "Point", "coordinates": [ -88.701113, 41.226076 ] } },
{ "type": "Feature", "properties": { "Project Name": "Maverick", "Latitude": 36.204722, "Longitude": -98.068889 }, "geometry": { "type": "Point", "coordinates": [ -98.068889, 36.204722 ] } },
{ "type": "Feature", "properties": { "Project Name": "Redfield", "Latitude": 34.267748, "Longitude": -92.23296 }, "geometry": { "type": "Point", "coordinates": [ -92.23296, 34.267748 ] } },
{ "type": "Feature", "properties": { "Project Name": "Beavertail", "Latitude": 38.345564, "Longitude": -93.986306 }, "geometry": { "type": "Point", "coordinates": [ -93.986306, 38.345564 ] } },
{ "type": "Feature", "properties": { "Project Name": "Top Hat Wind", "Latitude": 40.153624, "Longitude": -89.2225 }, "geometry": { "type": "Point", "coordinates": [ -89.2225, 40.153624 ] } },
{ "type": "Feature", "properties": { "Project Name": "Fighting Jays", "Latitude": 29.525312, "Longitude": -95.798908 }, "geometry": { "type": "Point", "coordinates": [ -95.798908, 29.525312 ] } },
{ "type": "Feature", "properties": { "Project Name": "Dolet Hills", "Latitude": 32.04116, "Longitude": -93.571247 }, "geometry": { "type": "Point", "coordinates": [ -93.571247, 32.04116 ] } },
{ "type": "Feature", "properties": { "Project Name": "Vantage Wind", "Latitude": 46.96848, "Longitude": -120.154242 }, "geometry": { "type": "Point", "coordinates": [ -120.154242, 46.96848 ] } },
{ "type": "Feature", "properties": { "Project Name": "Desert Sky Wind", "Latitude": 30.92373, "Longitude": -102.10677 }, "geometry": { "type": "Point", "coordinates": [ -102.10677, 30.92373 ] } },
{ "type": "Feature", "properties": { "Project Name": "Pe Novo", "Latitude": 43.59592, "Longitude": -8.124155 }, "geometry": { "type": "Point", "coordinates": [ -8.124155, 43.59592 ] } },
{ "type": "Feature", "properties": { "Project Name": "Catclaw Storage", "Latitude": null, "Longitude": null }, "geometry": null },
{ "type": "Feature", "properties": { "Project Name": "Split Rail Solar", "Latitude": 38.901147, "Longitude": -91.208636 }, "geometry": { "type": "Point", "coordinates": [ -91.208636, 38.901147 ] } },
{ "type": "Feature", "properties": { "Project Name": "Flat Water Wind", "Latitude": 0.0, "Longitude": 0.0 }, "geometry": { "type": "Point", "coordinates": [ 0.0, 0.0 ] } },
{ "type": "Feature", "properties": { "Project Name": "BlackRock - GREP - 1x Performance Analytics Project", "Latitude": 0.0, "Longitude": 0.0 }, "geometry": { "type": "Point", "coordinates": [ 0.0, 0.0 ] } },
{ "type": "Feature", "properties": { "Project Name": "Badger Hollow II Solar", "Latitude": 42.95291, "Longitude": -90.35004 }, "geometry": { "type": "Point", "coordinates": [ -90.35004, 42.95291 ] } },
{ "type": "Feature", "properties": { "Project Name": "Indiana Crossroads Solar", "Latitude": 40.71397, "Longitude": -86.850802 }, "geometry": { "type": "Point", "coordinates": [ -86.850802, 40.71397 ] } },
{ "type": "Feature", "properties": { "Project Name": "Auwahi Storage", "Latitude": 20.596, "Longitude": -156.318 }, "geometry": { "type": "Point", "coordinates": [ -156.318, 20.596 ] } },
{ "type": "Feature", "properties": { "Project Name": "Carroll Area Wind Farm", "Latitude": 41.94149, "Longitude": -94.88547 }, "geometry": { "type": "Point", "coordinates": [ -94.88547, 41.94149 ] } },
{ "type": "Feature", "properties": { "Project Name": "Queens Solar", "Latitude": 37.678015, "Longitude": 140.350356 }, "geometry": { "type": "Point", "coordinates": [ 140.350356, 37.678015 ] } },
{ "type": "Feature", "properties": { "Project Name": "White Oak Wind", "Latitude": 40.588186, "Longitude": -89.06597 }, "geometry": { "type": "Point", "coordinates": [ -89.06597, 40.588186 ] } },
{ "type": "Feature", "properties": { "Project Name": "Fowler Ridge II", "Latitude": 40.58051, "Longitude": -87.35666 }, "geometry": { "type": "Point", "coordinates": [ -87.35666, 40.58051 ] } },
{ "type": "Feature", "properties": { "Project Name": "Southern Star Solar + Storage", "Latitude": 38.182947, "Longitude": -104.386667 }, "geometry": { "type": "Point", "coordinates": [ -104.386667, 38.182947 ] } },
{ "type": "Feature", "properties": { "Project Name": "Pico Gallo", "Latitude": 43.397444, "Longitude": -6.396361 }, "geometry": { "type": "Point", "coordinates": [ -6.396361, 43.397444 ] } },
{ "type": "Feature", "properties": { "Project Name": "Horseshoe Solar", "Latitude": 42.965432, "Longitude": -77.718401 }, "geometry": { "type": "Point", "coordinates": [ -77.718401, 42.965432 ] } },
{ "type": "Feature", "properties": { "Project Name": "Foxtrot Solar", "Latitude": 37.352, "Longitude": -94.606 }, "geometry": { "type": "Point", "coordinates": [ -94.606, 37.352 ] } },
{ "type": "Feature", "properties": { "Project Name": "Hardee Thermal", "Latitude": 27.636913, "Longitude": -81.963702 }, "geometry": { "type": "Point", "coordinates": [ -81.963702, 27.636913 ] } },
{ "type": "Feature", "properties": { "Project Name": "Balko Wind", "Latitude": 36.542889, "Longitude": -100.830417 }, "geometry": { "type": "Point", "coordinates": [ -100.830417, 36.542889 ] } },
{ "type": "Feature", "properties": { "Project Name": "Grand Ridge II Wind", "Latitude": 41.173433, "Longitude": -88.67391 }, "geometry": { "type": "Point", "coordinates": [ -88.67391, 41.173433 ] } },
{ "type": "Feature", "properties": { "Project Name": "Kossuth", "Latitude": 42.981933, "Longitude": -94.11926 }, "geometry": { "type": "Point", "coordinates": [ -94.11926, 42.981933 ] } },
{ "type": "Feature", "properties": { "Project Name": "Sedgewick County Zoo (Westar) Storage", "Latitude": 37.722384, "Longitude": -97.411758 }, "geometry": { "type": "Point", "coordinates": [ -97.411758, 37.722384 ] } },
{ "type": "Feature", "properties": { "Project Name": "Southern Hills", "Latitude": 41.475111, "Longitude": -94.000806 }, "geometry": { "type": "Point", "coordinates": [ -94.000806, 41.475111 ] } },
{ "type": "Feature", "properties": { "Project Name": "Bloom Wind", "Latitude": 37.76067, "Longitude": -100.017863 }, "geometry": { "type": "Point", "coordinates": [ -100.017863, 37.76067 ] } },
{ "type": "Feature", "properties": { "Project Name": "Blue Bird", "Latitude": 38.902684, "Longitude": -91.20201 }, "geometry": { "type": "Point", "coordinates": [ -91.20201, 38.902684 ] } },
{ "type": "Feature", "properties": { "Project Name": "Shoreham", "Latitude": 40.933618, "Longitude": -72.888839 }, "geometry": { "type": "Point", "coordinates": [ -72.888839, 40.933618 ] } },
{ "type": "Feature", "properties": { "Project Name": "Outlaw Wind", "Latitude": 40.520833, "Longitude": -95.372778 }, "geometry": { "type": "Point", "coordinates": [ -95.372778, 40.520833 ] } },
{ "type": "Feature", "properties": { "Project Name": "Future Generation", "Latitude": 41.77039, "Longitude": -70.61771 }, "geometry": { "type": "Point", "coordinates": [ -70.61771, 41.77039 ] } },
{ "type": "Feature", "properties": { "Project Name": "Pekanino", "Latitude": 54.471178, "Longitude": 16.718286 }, "geometry": { "type": "Point", "coordinates": [ 16.718286, 54.471178 ] } },
{ "type": "Feature", "properties": { "Project Name": "Grand Ridge IV Wind", "Latitude": 41.257737, "Longitude": -88.73057 }, "geometry": { "type": "Point", "coordinates": [ -88.73057, 41.257737 ] } },
{ "type": "Feature", "properties": { "Project Name": "Centennial Wind", "Latitude": 36.645259, "Longitude": -99.619772 }, "geometry": { "type": "Point", "coordinates": [ -99.619772, 36.645259 ] } },
{ "type": "Feature", "properties": { "Project Name": "Samson II Solar", "Latitude": 33.45339, "Longitude": -95.375383 }, "geometry": { "type": "Point", "coordinates": [ -95.375383, 33.45339 ] } },
{ "type": "Feature", "properties": { "Project Name": "Serra das Vacas", "Latitude": -8.91810315, "Longitude": -36.71022543 }, "geometry": { "type": "Point", "coordinates": [ -36.71022543, -8.91810315 ] } },
{ "type": "Feature", "properties": { "Project Name": "Saratoga Solar", "Latitude": 44.279, "Longitude": -89.831 }, "geometry": { "type": "Point", "coordinates": [ -89.831, 44.279 ] } },
{ "type": "Feature", "properties": { "Project Name": "Santa Rita", "Latitude": 31.217463, "Longitude": -101.345104 }, "geometry": { "type": "Point", "coordinates": [ -101.345104, 31.217463 ] } },
{ "type": "Feature", "properties": { "Project Name": "Pine River/Gratiot II", "Latitude": 43.438159, "Longitude": -84.680702 }, "geometry": { "type": "Point", "coordinates": [ -84.680702, 43.438159 ] } },
{ "type": "Feature", "properties": { "Project Name": "Pony Express", "Latitude": 39.77, "Longitude": -95.96 }, "geometry": { "type": "Point", "coordinates": [ -95.96, 39.77 ] } },
{ "type": "Feature", "properties": { "Project Name": "Boulder Solar II", "Latitude": 35.88964, "Longitude": -114.95714 }, "geometry": { "type": "Point", "coordinates": [ -114.95714, 35.88964 ] } },
{ "type": "Feature", "properties": { "Project Name": "Thunderhead Wind", "Latitude": 42.049, "Longitude": -98.244 }, "geometry": { "type": "Point", "coordinates": [ -98.244, 42.049 ] } },
{ "type": "Feature", "properties": { "Project Name": "Joguinho", "Latitude": 39.105556, "Longitude": -9.167639 }, "geometry": { "type": "Point", "coordinates": [ -9.167639, 39.105556 ] } },
{ "type": "Feature", "properties": { "Project Name": "Faraday", "Latitude": 40.0759, "Longitude": -112.095493 }, "geometry": { "type": "Point", "coordinates": [ -112.095493, 40.0759 ] } },
{ "type": "Feature", "properties": { "Project Name": "Corterejón", "Latitude": 43.037527, "Longitude": -3.836107 }, "geometry": { "type": "Point", "coordinates": [ -3.836107, 43.037527 ] } },
{ "type": "Feature", "properties": { "Project Name": "Hashknife II Solar + Storage", "Latitude": 34.574259, "Longitude": -110.494616 }, "geometry": { "type": "Point", "coordinates": [ -110.494616, 34.574259 ] } },
{ "type": "Feature", "properties": { "Project Name": "Towner I Wind", "Latitude": 38.390422, "Longitude": -102.310656 }, "geometry": { "type": "Point", "coordinates": [ -102.310656, 38.390422 ] } },
{ "type": "Feature", "properties": { "Project Name": "Campo Palomas Wind", "Latitude": -31.120816, "Longitude": -57.554246 }, "geometry": { "type": "Point", "coordinates": [ -57.554246, -31.120816 ] } },
{ "type": "Feature", "properties": { "Project Name": "Arriba Wind", "Latitude": 39.416156, "Longitude": -103.258218 }, "geometry": { "type": "Point", "coordinates": [ -103.258218, 39.416156 ] } },
{ "type": "Feature", "properties": { "Project Name": "Number Three Wind", "Latitude": 43.839599, "Longitude": -75.569885 }, "geometry": { "type": "Point", "coordinates": [ -75.569885, 43.839599 ] } },
{ "type": "Feature", "properties": { "Project Name": "Loraine", "Latitude": 32.490941, "Longitude": -100.721283 }, "geometry": { "type": "Point", "coordinates": [ -100.721283, 32.490941 ] } },
{ "type": "Feature", "properties": { "Project Name": "Searcy Solar", "Latitude": 0.0, "Longitude": 0.0 }, "geometry": { "type": "Point", "coordinates": [ 0.0, 0.0 ] } },
{ "type": "Feature", "properties": { "Project Name": "La Toba Storage", "Latitude": 25.193933, "Longitude": -111.767595 }, "geometry": { "type": "Point", "coordinates": [ -111.767595, 25.193933 ] } },
{ "type": "Feature", "properties": { "Project Name": "Millican Solar", "Latitude": 44.262104, "Longitude": -120.883566 }, "geometry": { "type": "Point", "coordinates": [ -120.883566, 44.262104 ] } },
{ "type": "Feature", "properties": { "Project Name": "Upstream Wind", "Latitude": 42.184336, "Longitude": -97.964978 }, "geometry": { "type": "Point", "coordinates": [ -97.964978, 42.184336 ] } },
{ "type": "Feature", "properties": { "Project Name": "Delilah II Solar", "Latitude": 33.480161, "Longitude": -95.253618 }, "geometry": { "type": "Point", "coordinates": [ -95.253618, 33.480161 ] } },
{ "type": "Feature", "properties": { "Project Name": "Santa Rita East", "Latitude": 31.207988, "Longitude": -101.110787 }, "geometry": { "type": "Point", "coordinates": [ -101.110787, 31.207988 ] } },
{ "type": "Feature", "properties": { "Project Name": "Koumi Kogen Solar", "Latitude": 36.051708, "Longitude": 138.482628 }, "geometry": { "type": "Point", "coordinates": [ 138.482628, 36.051708 ] } },
{ "type": "Feature", "properties": { "Project Name": "Paxareiras", "Latitude": 42.859727, "Longitude": -9.035621 }, "geometry": { "type": "Point", "coordinates": [ -9.035621, 42.859727 ] } },
{ "type": "Feature", "properties": { "Project Name": "Brazoria County", "Latitude": 29.212525, "Longitude": -95.655412 }, "geometry": { "type": "Point", "coordinates": [ -95.655412, 29.212525 ] } },
{ "type": "Feature", "properties": { "Project Name": "Hyder I Storage", "Latitude": 33.026717, "Longitude": -113.3579 }, "geometry": { "type": "Point", "coordinates": [ -113.3579, 33.026717 ] } },
{ "type": "Feature", "properties": { "Project Name": "33 CE OAXACA I", "Latitude": 16.566952, "Longitude": -94.725916 }, "geometry": { "type": "Point", "coordinates": [ -94.725916, 16.566952 ] } },
{ "type": "Feature", "properties": { "Project Name": "Horsepower - Greenstone", "Latitude": 41.9435, "Longitude": -85.122886 }, "geometry": { "type": "Point", "coordinates": [ -85.122886, 41.9435 ] } },
{ "type": "Feature", "properties": { "Project Name": "Rock Creek II Wind", "Latitude": 41.635372, "Longitude": -106.073108 }, "geometry": { "type": "Point", "coordinates": [ -106.073108, 41.635372 ] } },
{ "type": "Feature", "properties": { "Project Name": "Gratiot County Wind", "Latitude": 43.349329, "Longitude": -84.577762 }, "geometry": { "type": "Point", "coordinates": [ -84.577762, 43.349329 ] } },
{ "type": "Feature", "properties": { "Project Name": "Stanton", "Latitude": 32.207583, "Longitude": -101.813466 }, "geometry": { "type": "Point", "coordinates": [ -101.813466, 32.207583 ] } },
{ "type": "Feature", "properties": { "Project Name": "U.S. Services True-Up", "Latitude": null, "Longitude": null }, "geometry": null },
{ "type": "Feature", "properties": { "Project Name": "Gordon Butte Wind, LLC", "Latitude": 46.452215, "Longitude": -110.344415 }, "geometry": { "type": "Point", "coordinates": [ -110.344415, 46.452215 ] } },
{ "type": "Feature", "properties": { "Project Name": "Alto Abara", "Latitude": 43.527219, "Longitude": -6.782696 }, "geometry": { "type": "Point", "coordinates": [ -6.782696, 43.527219 ] } },
{ "type": "Feature", "properties": { "Project Name": "Le Plateau I Wind", "Latitude": 48.012736, "Longitude": -67.43755 }, "geometry": { "type": "Point", "coordinates": [ -67.43755, 48.012736 ] } },
{ "type": "Feature", "properties": { "Project Name": "Renegade Solar", "Latitude": 45.99731, "Longitude": -87.22625 }, "geometry": { "type": "Point", "coordinates": [ -87.22625, 45.99731 ] } },
{ "type": "Feature", "properties": { "Project Name": "Chalk Bluff Solar", "Latitude": 35.051606, "Longitude": -90.43254 }, "geometry": { "type": "Point", "coordinates": [ -90.43254, 35.051606 ] } },
{ "type": "Feature", "properties": { "Project Name": "Willow Creek Wind", "Latitude": 45.641231, "Longitude": -119.986791 }, "geometry": { "type": "Point", "coordinates": [ -119.986791, 45.641231 ] } },
{ "type": "Feature", "properties": { "Project Name": "Silver Star", "Latitude": 32.41127, "Longitude": -98.48969 }, "geometry": { "type": "Point", "coordinates": [ -98.48969, 32.41127 ] } },
{ "type": "Feature", "properties": { "Project Name": "Orangeville Wind", "Latitude": 42.746228, "Longitude": -78.217872 }, "geometry": { "type": "Point", "coordinates": [ -78.217872, 42.746228 ] } },
{ "type": "Feature", "properties": { "Project Name": "Lazbuddie Wind", "Latitude": 34.5589, "Longitude": -102.6826 }, "geometry": { "type": "Point", "coordinates": [ -102.6826, 34.5589 ] } },
{ "type": "Feature", "properties": { "Project Name": "Saratoga Storage", "Latitude": 42.69074, "Longitude": -90.72291 }, "geometry": { "type": "Point", "coordinates": [ -90.72291, 42.69074 ] } },
{ "type": "Feature", "properties": { "Project Name": "Vega Solar", "Latitude": 26.468253, "Longitude": -98.802578 }, "geometry": { "type": "Point", "coordinates": [ -98.802578, 26.468253 ] } },
{ "type": "Feature", "properties": { "Project Name": "Pohénégamook-Picard-St-Antonin-Wolastokuk (PPAW 2) Wind", "Latitude": 47.637, "Longitude": -69.326 }, "geometry": { "type": "Point", "coordinates": [ -69.326, 47.637 ] } },
{ "type": "Feature", "properties": { "Project Name": "Pavant III Solar", "Latitude": 39.0611, "Longitude": -113.1918 }, "geometry": { "type": "Point", "coordinates": [ -113.1918, 39.0611 ] } },
{ "type": "Feature", "properties": { "Project Name": "Horsepower - BE IV", "Latitude": 41.9379, "Longitude": -84.030358 }, "geometry": { "type": "Point", "coordinates": [ -84.030358, 41.9379 ] } },
{ "type": "Feature", "properties": { "Project Name": "Bodenaya", "Latitude": 43.395278, "Longitude": -6.312778 }, "geometry": { "type": "Point", "coordinates": [ -6.312778, 43.395278 ] } },
{ "type": "Feature", "properties": { "Project Name": "Calhoun Solar", "Latitude": 42.338532, "Longitude": -85.049019 }, "geometry": { "type": "Point", "coordinates": [ -85.049019, 42.338532 ] } },
{ "type": "Feature", "properties": { "Project Name": "Alle-Catt Wind", "Latitude": 42.466612, "Longitude": -78.339449 }, "geometry": { "type": "Point", "coordinates": [ -78.339449, 42.466612 ] } },
{ "type": "Feature", "properties": { "Project Name": "Horsepower - Midcontinent", "Latitude": 42.972189, "Longitude": -84.157269 }, "geometry": { "type": "Point", "coordinates": [ -84.157269, 42.972189 ] } },
{ "type": "Feature", "properties": { "Project Name": "Gravel Pit Expansion", "Latitude": 41.8889, "Longitude": -72.549 }, "geometry": { "type": "Point", "coordinates": [ -72.549, 41.8889 ] } },
{ "type": "Feature", "properties": { "Project Name": "Pohénégamook-Picard-St-Antonin-Wolastokuk (PPAW) Wind", "Latitude": 47.746, "Longitude": -69.197 }, "geometry": { "type": "Point", "coordinates": [ -69.197, 47.746 ] } },
{ "type": "Feature", "properties": { "Project Name": "Ida Grove Wind", "Latitude": 42.274816, "Longitude": -95.473044 }, "geometry": { "type": "Point", "coordinates": [ -95.473044, 42.274816 ] } },
{ "type": "Feature", "properties": { "Project Name": "Highland II / O'Brien Wind", "Latitude": 43.240019, "Longitude": -95.569192 }, "geometry": { "type": "Point", "coordinates": [ -95.569192, 43.240019 ] } },
{ "type": "Feature", "properties": { "Project Name": "Dawn Harvest Solar + Storage", "Latitude": 42.671801, "Longitude": -88.946995 }, "geometry": { "type": "Point", "coordinates": [ -88.946995, 42.671801 ] } },
{ "type": "Feature", "properties": { "Project Name": "Las Fenicias", "Latitude": 25.696647, "Longitude": -98.706647 }, "geometry": { "type": "Point", "coordinates": [ -98.706647, 25.696647 ] } },
{ "type": "Feature", "properties": { "Project Name": "Todd Solar", "Latitude": 38.613328, "Longitude": -75.835207 }, "geometry": { "type": "Point", "coordinates": [ -75.835207, 38.613328 ] } },
{ "type": "Feature", "properties": { "Project Name": "Westlands", "Latitude": 36.12697, "Longitude": -120.14113 }, "geometry": { "type": "Point", "coordinates": [ -120.14113, 36.12697 ] } },
{ "type": "Feature", "properties": { "Project Name": "Trent Mesa Wind (156)", "Latitude": 32.42619, "Longitude": -100.21127 }, "geometry": { "type": "Point", "coordinates": [ -100.21127, 32.42619 ] } },
{ "type": "Feature", "properties": { "Project Name": "Babacomari", "Latitude": 31.673394, "Longitude": -110.3588 }, "geometry": { "type": "Point", "coordinates": [ -110.3588, 31.673394 ] } },
{ "type": "Feature", "properties": { "Project Name": "Sheldon", "Latitude": 42.739726, "Longitude": -78.402487 }, "geometry": { "type": "Point", "coordinates": [ -78.402487, 42.739726 ] } },
{ "type": "Feature", "properties": { "Project Name": "Rusutsu", "Latitude": 42.689322, "Longitude": 141.051316 }, "geometry": { "type": "Point", "coordinates": [ 141.051316, 42.689322 ] } },
{ "type": "Feature", "properties": { "Project Name": "Corriegarth Wind", "Latitude": 57.36, "Longitude": -4.47 }, "geometry": { "type": "Point", "coordinates": [ -4.47, 57.36 ] } },
{ "type": "Feature", "properties": { "Project Name": "Washtenaw Solar", "Latitude": 42.153989, "Longitude": -83.829678 }, "geometry": { "type": "Point", "coordinates": [ -83.829678, 42.153989 ] } },
{ "type": "Feature", "properties": { "Project Name": "Blooming Grove Wind", "Latitude": 40.660344, "Longitude": -88.657688 }, "geometry": { "type": "Point", "coordinates": [ -88.657688, 40.660344 ] } },
{ "type": "Feature", "properties": { "Project Name": "White Horse Wind", "Latitude": 41.82, "Longitude": -89.123 }, "geometry": { "type": "Point", "coordinates": [ -89.123, 41.82 ] } },
{ "type": "Feature", "properties": { "Project Name": "OU Spirit", "Latitude": 36.246944, "Longitude": -99.354167 }, "geometry": { "type": "Point", "coordinates": [ -99.354167, 36.246944 ] } },
{ "type": "Feature", "properties": { "Project Name": "Pixley Solar", "Latitude": 37.266099, "Longitude": -98.500197 }, "geometry": { "type": "Point", "coordinates": [ -98.500197, 37.266099 ] } },
{ "type": "Feature", "properties": { "Project Name": "Gorzyca Wind", "Latitude": 54.31042, "Longitude": 16.485697 }, "geometry": { "type": "Point", "coordinates": [ 16.485697, 54.31042 ] } },
{ "type": "Feature", "properties": { "Project Name": "Assembly Solar III", "Latitude": 43.0227, "Longitude": -83.9427 }, "geometry": { "type": "Point", "coordinates": [ -83.9427, 43.0227 ] } },
{ "type": "Feature", "properties": { "Project Name": "Ustka Wind", "Latitude": 54.51929, "Longitude": 16.829279 }, "geometry": { "type": "Point", "coordinates": [ 16.829279, 54.51929 ] } },
{ "type": "Feature", "properties": { "Project Name": "Yum Yum Solar", "Latitude": 35.326372, "Longitude": -89.414911 }, "geometry": { "type": "Point", "coordinates": [ -89.414911, 35.326372 ] } },
{ "type": "Feature", "properties": { "Project Name": "Outlaw II", "Latitude": 40.520833, "Longitude": -95.372778 }, "geometry": { "type": "Point", "coordinates": [ -95.372778, 40.520833 ] } },
{ "type": "Feature", "properties": { "Project Name": "Gratiot Wind Surplus Solar", "Latitude": 43.427, "Longitude": -84.472 }, "geometry": { "type": "Point", "coordinates": [ -84.472, 43.427 ] } },
{ "type": "Feature", "properties": { "Project Name": "Trent Mesa Wind (150)", "Latitude": 32.430178, "Longitude": -100.241826 }, "geometry": { "type": "Point", "coordinates": [ -100.241826, 32.430178 ] } },
{ "type": "Feature", "properties": { "Project Name": "Peña del Cuervo", "Latitude": 43.465122, "Longitude": -5.995619 }, "geometry": { "type": "Point", "coordinates": [ -5.995619, 43.465122 ] } },
{ "type": "Feature", "properties": { "Project Name": "Des Moulins II Wind", "Latitude": 48.054814, "Longitude": -68.008647 }, "geometry": { "type": "Point", "coordinates": [ -68.008647, 48.054814 ] } },
{ "type": "Feature", "properties": { "Project Name": "EcoGrove", "Latitude": 42.452903, "Longitude": -89.840816 }, "geometry": { "type": "Point", "coordinates": [ -89.840816, 42.452903 ] } },
{ "type": "Feature", "properties": { "Project Name": "Richland II", "Latitude": 42.339651, "Longitude": -95.241787 }, "geometry": { "type": "Point", "coordinates": [ -95.241787, 42.339651 ] } },
{ "type": "Feature", "properties": { "Project Name": "Gunsight I Wind", "Latitude": 32.491348, "Longitude": -101.437351 }, "geometry": { "type": "Point", "coordinates": [ -101.437351, 32.491348 ] } },
{ "type": "Feature", "properties": { "Project Name": "Alexander Wind Farm", "Latitude": 38.435371, "Longitude": -99.539223 }, "geometry": { "type": "Point", "coordinates": [ -99.539223, 38.435371 ] } },
{ "type": "Feature", "properties": { "Project Name": "Deuel Harvest North", "Latitude": 44.884245, "Longitude": -96.614092 }, "geometry": { "type": "Point", "coordinates": [ -96.614092, 44.884245 ] } },
{ "type": "Feature", "properties": { "Project Name": "Camp Springs I Wind", "Latitude": 32.797362, "Longitude": -100.817352 }, "geometry": { "type": "Point", "coordinates": [ -100.817352, 32.797362 ] } },
{ "type": "Feature", "properties": { "Project Name": "Hyder II Storage", "Latitude": 33.026718, "Longitude": -113.357901 }, "geometry": { "type": "Point", "coordinates": [ -113.357901, 33.026718 ] } },
{ "type": "Feature", "properties": { "Project Name": "Canisteo Wind", "Latitude": 42.132359, "Longitude": -77.592713 }, "geometry": { "type": "Point", "coordinates": [ -77.592713, 42.132359 ] } },
{ "type": "Feature", "properties": { "Project Name": "Exodus Solar", "Latitude": 29.914568, "Longitude": -97.77465 }, "geometry": { "type": "Point", "coordinates": [ -97.77465, 29.914568 ] } },
{ "type": "Feature", "properties": { "Project Name": "Polaris", "Latitude": 43.259215, "Longitude": -84.509697 }, "geometry": { "type": "Point", "coordinates": [ -84.509697, 43.259215 ] } },
{ "type": "Feature", "properties": { "Project Name": "Cannon Falls Thermal", "Latitude": 44.536737, "Longitude": -92.915368 }, "geometry": { "type": "Point", "coordinates": [ -92.915368, 44.536737 ] } },
{ "type": "Feature", "properties": { "Project Name": "Wolverine Creek Wind", "Latitude": 43.377323, "Longitude": -111.857108 }, "geometry": { "type": "Point", "coordinates": [ -111.857108, 43.377323 ] } },
{ "type": "Feature", "properties": { "Project Name": "Desert Green Solar", "Latitude": 33.265274, "Longitude": -116.328561 }, "geometry": { "type": "Point", "coordinates": [ -116.328561, 33.265274 ] } },
{ "type": "Feature", "properties": { "Project Name": "Flat Ridge III", "Latitude": 0.0, "Longitude": 0.0 }, "geometry": { "type": "Point", "coordinates": [ 0.0, 0.0 ] } },
{ "type": "Feature", "properties": { "Project Name": "Orient Wind", "Latitude": 41.198597, "Longitude": -94.365172 }, "geometry": { "type": "Point", "coordinates": [ -94.365172, 41.198597 ] } },
{ "type": "Feature", "properties": { "Project Name": "Mehoopany", "Latitude": 41.54404, "Longitude": -76.09323 }, "geometry": { "type": "Point", "coordinates": [ -76.09323, 41.54404 ] } },
{ "type": "Feature", "properties": { "Project Name": "Rush Solar", "Latitude": 39.774, "Longitude": -85.483 }, "geometry": { "type": "Point", "coordinates": [ -85.483, 39.774 ] } },
{ "type": "Feature", "properties": { "Project Name": "Mustang Mile Solar", "Latitude": 42.044954, "Longitude": -83.854511 }, "geometry": { "type": "Point", "coordinates": [ -83.854511, 42.044954 ] } },
{ "type": "Feature", "properties": { "Project Name": "Peak View (BT)", "Latitude": null, "Longitude": null }, "geometry": null },
{ "type": "Feature", "properties": { "Project Name": "McAdoo", "Latitude": 33.770732, "Longitude": -100.982375 }, "geometry": { "type": "Point", "coordinates": [ -100.982375, 33.770732 ] } },
{ "type": "Feature", "properties": { "Project Name": "Dandan Solar LLC", "Latitude": 13.305427, "Longitude": -144.749984 }, "geometry": { "type": "Point", "coordinates": [ -144.749984, 13.305427 ] } },
{ "type": "Feature", "properties": { "Project Name": "Diversion Wind", "Latitude": 33.742, "Longitude": -99.032 }, "geometry": { "type": "Point", "coordinates": [ -99.032, 33.742 ] } },
{ "type": "Feature", "properties": { "Project Name": "Hashknife I Solar + Storage", "Latitude": 34.574259, "Longitude": -110.494616 }, "geometry": { "type": "Point", "coordinates": [ -110.494616, 34.574259 ] } },
{ "type": "Feature", "properties": { "Project Name": "Hardin I", "Latitude": 40.648535, "Longitude": -83.81327 }, "geometry": { "type": "Point", "coordinates": [ -83.81327, 40.648535 ] } },
{ "type": "Feature", "properties": { "Project Name": "Red Barn", "Latitude": 42.943893, "Longitude": -90.4939 }, "geometry": { "type": "Point", "coordinates": [ -90.4939, 42.943893 ] } },
{ "type": "Feature", "properties": { "Project Name": "Ibaraki-Hanawa Wind", "Latitude": 36.86285, "Longitude": 140.571601 }, "geometry": { "type": "Point", "coordinates": [ 140.571601, 36.86285 ] } },
{ "type": "Feature", "properties": { "Project Name": "Chapada", "Latitude": -7.41481, "Longitude": -40.73615 }, "geometry": { "type": "Point", "coordinates": [ -40.73615, -7.41481 ] } },
{ "type": "Feature", "properties": { "Project Name": "Goldthwaite Wind", "Latitude": 31.389826, "Longitude": -98.483531 }, "geometry": { "type": "Point", "coordinates": [ -98.483531, 31.389826 ] } },
{ "type": "Feature", "properties": { "Project Name": "Bethel", "Latitude": 34.574702, "Longitude": -102.469309 }, "geometry": { "type": "Point", "coordinates": [ -102.469309, 34.574702 ] } },
{ "type": "Feature", "properties": { "Project Name": "Jezyce Wind", "Latitude": 54.35285, "Longitude": 16.413022 }, "geometry": { "type": "Point", "coordinates": [ 16.413022, 54.35285 ] } },
{ "type": "Feature", "properties": { "Project Name": "Bishop Hill II Wind", "Latitude": 41.206778, "Longitude": -90.314614 }, "geometry": { "type": "Point", "coordinates": [ -90.314614, 41.206778 ] } },
{ "type": "Feature", "properties": { "Project Name": "Midway", "Latitude": 30.990671, "Longitude": -102.228156 }, "geometry": { "type": "Point", "coordinates": [ -102.228156, 30.990671 ] } },
{ "type": "Feature", "properties": { "Project Name": "Diamond Trail Wind", "Latitude": 41.607932, "Longitude": -92.17539 }, "geometry": { "type": "Point", "coordinates": [ -92.17539, 41.607932 ] } },
{ "type": "Feature", "properties": { "Project Name": "Grand Ridge Solar", "Latitude": 41.14642, "Longitude": -88.75435 }, "geometry": { "type": "Point", "coordinates": [ -88.75435, 41.14642 ] } },
{ "type": "Feature", "properties": { "Project Name": "Black Oak Getty Wind", "Latitude": 45.649066, "Longitude": -95.047455 }, "geometry": { "type": "Point", "coordinates": [ -95.047455, 45.649066 ] } },
{ "type": "Feature", "properties": { "Project Name": "Glacier Hills Wind Park", "Latitude": 43.5422, "Longitude": -89.1073 }, "geometry": { "type": "Point", "coordinates": [ -89.1073, 43.5422 ] } },
{ "type": "Feature", "properties": { "Project Name": "Prairie Breeze I", "Latitude": 41.932961, "Longitude": -98.126962 }, "geometry": { "type": "Point", "coordinates": [ -98.126962, 41.932961 ] } },
{ "type": "Feature", "properties": { "Project Name": "Gordon Butte Pumped Storage Hydro Project", "Latitude": 0.0, "Longitude": 0.0 }, "geometry": { "type": "Point", "coordinates": [ 0.0, 0.0 ] } },
{ "type": "Feature", "properties": { "Project Name": "Gratiot County (B-T) Wind", "Latitude": 43.455329, "Longitude": -84.384965 }, "geometry": { "type": "Point", "coordinates": [ -84.384965, 43.455329 ] } },
{ "type": "Feature", "properties": { "Project Name": "7V Solar", "Latitude": 29.783564, "Longitude": -97.050304 }, "geometry": { "type": "Point", "coordinates": [ -97.050304, 29.783564 ] } },
{ "type": "Feature", "properties": { "Project Name": "Long Lake", "Latitude": 34.401158, "Longitude": -90.733334 }, "geometry": { "type": "Point", "coordinates": [ -90.733334, 34.401158 ] } },
{ "type": "Feature", "properties": { "Project Name": "Duette Solar", "Latitude": 27.591635, "Longitude": -82.075649 }, "geometry": { "type": "Point", "coordinates": [ -82.075649, 27.591635 ] } },
{ "type": "Feature", "properties": { "Project Name": "La Toba Solar", "Latitude": 25.195962, "Longitude": -111.754687 }, "geometry": { "type": "Point", "coordinates": [ -111.754687, 25.195962 ] } },
{ "type": "Feature", "properties": { "Project Name": "El Centro Solar Park", "Latitude": 32.801441, "Longitude": -115.53995 }, "geometry": { "type": "Point", "coordinates": [ -115.53995, 32.801441 ] } },
{ "type": "Feature", "properties": { "Project Name": "Dobieslaw Wind", "Latitude": 54.382603, "Longitude": 16.410165 }, "geometry": { "type": "Point", "coordinates": [ 16.410165, 54.382603 ] } },
{ "type": "Feature", "properties": { "Project Name": "Palo Alto", "Latitude": 43.195689, "Longitude": -94.536176 }, "geometry": { "type": "Point", "coordinates": [ -94.536176, 43.195689 ] } },
{ "type": "Feature", "properties": { "Project Name": "Horsepower - BE VII", "Latitude": 43.088233, "Longitude": -83.567489 }, "geometry": { "type": "Point", "coordinates": [ -83.567489, 43.088233 ] } },
{ "type": "Feature", "properties": { "Project Name": "Southern Oak Solar", "Latitude": 31.26955, "Longitude": -84.228721 }, "geometry": { "type": "Point", "coordinates": [ -84.228721, 31.26955 ] } },
{ "type": "Feature", "properties": { "Project Name": "Yuzukami (AKA Higashi Nasu) Solar", "Latitude": 36.821965, "Longitude": 140.067478 }, "geometry": { "type": "Point", "coordinates": [ 140.067478, 36.821965 ] } },
{ "type": "Feature", "properties": { "Project Name": "Horsepower - BE I", "Latitude": 41.914825, "Longitude": -83.958764 }, "geometry": { "type": "Point", "coordinates": [ -83.958764, 41.914825 ] } },
{ "type": "Feature", "properties": { "Project Name": "Ekola Flats Wind", "Latitude": 41.958141, "Longitude": -106.296285 }, "geometry": { "type": "Point", "coordinates": [ -106.296285, 41.958141 ] } },
{ "type": "Feature", "properties": { "Project Name": "El Sol Storage", "Latitude": 33.569689, "Longitude": -112.304981 }, "geometry": { "type": "Point", "coordinates": [ -112.304981, 33.569689 ] } },
{ "type": "Feature", "properties": { "Project Name": "Logan", "Latitude": 40.9554722, "Longitude": -103.257361 }, "geometry": { "type": "Point", "coordinates": [ -103.257361, 40.9554722 ] } },
{ "type": "Feature", "properties": { "Project Name": "Richfield Solar", "Latitude": 38.607967, "Longitude": -75.877604 }, "geometry": { "type": "Point", "coordinates": [ -75.877604, 38.607967 ] } },
{ "type": "Feature", "properties": { "Project Name": "Woodville", "Latitude": 44.412507, "Longitude": -78.801201 }, "geometry": { "type": "Point", "coordinates": [ -78.801201, 44.412507 ] } },
{ "type": "Feature", "properties": { "Project Name": "Forward 1 Wind", "Latitude": 43.658433, "Longitude": -88.50961 }, "geometry": { "type": "Point", "coordinates": [ -88.50961, 43.658433 ] } },
{ "type": "Feature", "properties": { "Project Name": "Plymouth Wind", "Latitude": 42.842969, "Longitude": -95.941257 }, "geometry": { "type": "Point", "coordinates": [ -95.941257, 42.842969 ] } },
{ "type": "Feature", "properties": { "Project Name": "Cuyama", "Latitude": 34.90445, "Longitude": -119.59565 }, "geometry": { "type": "Point", "coordinates": [ -119.59565, 34.90445 ] } },
{ "type": "Feature", "properties": { "Project Name": "Grand Ridge III Wind", "Latitude": 41.163409, "Longitude": -88.742003 }, "geometry": { "type": "Point", "coordinates": [ -88.742003, 41.163409 ] } },
{ "type": "Feature", "properties": { "Project Name": "Luning Solar", "Latitude": 38.544851, "Longitude": -118.190809 }, "geometry": { "type": "Point", "coordinates": [ -118.190809, 38.544851 ] } },
{ "type": "Feature", "properties": { "Project Name": "Beech Ridge II Wind", "Latitude": 38.070014, "Longitude": -80.573509 }, "geometry": { "type": "Point", "coordinates": [ -80.573509, 38.070014 ] } },
{ "type": "Feature", "properties": { "Project Name": "Guadalupe Cogen Phase I (PEM)", "Latitude": 25.6948, "Longitude": -100.1501 }, "geometry": { "type": "Point", "coordinates": [ -100.1501, 25.6948 ] } },
{ "type": "Feature", "properties": { "Project Name": "La Jacinta", "Latitude": -31.256487, "Longitude": -57.377701 }, "geometry": { "type": "Point", "coordinates": [ -57.377701, -31.256487 ] } },
{ "type": "Feature", "properties": { "Project Name": "Espinhaco de Cao", "Latitude": 37.219944, "Longitude": -8.783361 }, "geometry": { "type": "Point", "coordinates": [ -8.783361, 37.219944 ] } },
{ "type": "Feature", "properties": { "Project Name": "Sweet Sue Solar", "Latitude": 37.762, "Longitude": -77.191 }, "geometry": { "type": "Point", "coordinates": [ -77.191, 37.762 ] } },
{ "type": "Feature", "properties": { "Project Name": "Palo Alto Solar", "Latitude": 43.191027, "Longitude": -94.619382 }, "geometry": { "type": "Point", "coordinates": [ -94.619382, 43.191027 ] } },
{ "type": "Feature", "properties": { "Project Name": "TB Flats", "Latitude": 42.170928, "Longitude": -106.136231 }, "geometry": { "type": "Point", "coordinates": [ -106.136231, 42.170928 ] } },
{ "type": "Feature", "properties": { "Project Name": "Miami I", "Latitude": 35.662116, "Longitude": -100.533387 }, "geometry": { "type": "Point", "coordinates": [ -100.533387, 35.662116 ] } },
{ "type": "Feature", "properties": { "Project Name": "Inaniwa Wind", "Latitude": 40.183, "Longitude": 141.05 }, "geometry": { "type": "Point", "coordinates": [ 141.05, 40.183 ] } },
{ "type": "Feature", "properties": { "Project Name": "Horsepower - BE III", "Latitude": 42.514978, "Longitude": -84.590011 }, "geometry": { "type": "Point", "coordinates": [ -84.590011, 42.514978 ] } },
{ "type": "Feature", "properties": { "Project Name": "Boryszewo Wind", "Latitude": 54.305173, "Longitude": 16.377921 }, "geometry": { "type": "Point", "coordinates": [ 16.377921, 54.305173 ] } },
{ "type": "Feature", "properties": { "Project Name": "Chickasaw Wind", "Latitude": 43.160082, "Longitude": -92.30939 }, "geometry": { "type": "Point", "coordinates": [ -92.30939, 43.160082 ] } },
{ "type": "Feature", "properties": { "Project Name": "Lithia Solar", "Latitude": 27.755186, "Longitude": -82.163475 }, "geometry": { "type": "Point", "coordinates": [ -82.163475, 27.755186 ] } },
{ "type": "Feature", "properties": { "Project Name": "Rattlesnake I", "Latitude": 31.723311, "Longitude": -101.442517 }, "geometry": { "type": "Point", "coordinates": [ -101.442517, 31.723311 ] } },
{ "type": "Feature", "properties": { "Project Name": "Spindle Hill", "Latitude": 40.092063, "Longitude": -104.88795 }, "geometry": { "type": "Point", "coordinates": [ -104.88795, 40.092063 ] } },
{ "type": "Feature", "properties": { "Project Name": "Spring Canyon I Wind", "Latitude": 40.951185, "Longitude": -103.031955 }, "geometry": { "type": "Point", "coordinates": [ -103.031955, 40.951185 ] } },
{ "type": "Feature", "properties": { "Project Name": "Spring Canyon II", "Latitude": 40.994, "Longitude": -102.986393 }, "geometry": { "type": "Point", "coordinates": [ -102.986393, 40.994 ] } },
{ "type": "Feature", "properties": { "Project Name": "Badger State", "Latitude": 43.09, "Longitude": -88.71 }, "geometry": { "type": "Point", "coordinates": [ -88.71, 43.09 ] } },
{ "type": "Feature", "properties": { "Project Name": "Wilkinson", "Latitude": 35.603957, "Longitude": -76.761344 }, "geometry": { "type": "Point", "coordinates": [ -76.761344, 35.603957 ] } },
{ "type": "Feature", "properties": { "Project Name": "Orangeville Storage", "Latitude": 42.738686, "Longitude": -78.239731 }, "geometry": { "type": "Point", "coordinates": [ -78.239731, 42.738686 ] } },
{ "type": "Feature", "properties": { "Project Name": "English Farms I", "Latitude": 41.593033, "Longitude": -92.466292 }, "geometry": { "type": "Point", "coordinates": [ -92.466292, 41.593033 ] } },
{ "type": "Feature", "properties": { "Project Name": "Stary Jaroslaw", "Latitude": 54.394347, "Longitude": 16.554534 }, "geometry": { "type": "Point", "coordinates": [ 16.554534, 54.394347 ] } },
{ "type": "Feature", "properties": { "Project Name": "Whitetail Solar", "Latitude": 42.125582, "Longitude": -83.653578 }, "geometry": { "type": "Point", "coordinates": [ -83.653578, 42.125582 ] } },
{ "type": "Feature", "properties": { "Project Name": "Frontier", "Latitude": 37.36799, "Longitude": -121.15072 }, "geometry": { "type": "Point", "coordinates": [ -121.15072, 37.36799 ] } },
{ "type": "Feature", "properties": { "Project Name": "Apple Blossom Wind", "Latitude": 43.913084, "Longitude": -83.269276 }, "geometry": { "type": "Point", "coordinates": [ -83.269276, 43.913084 ] } },
{ "type": "Feature", "properties": { "Project Name": "Walnut Bend Solar", "Latitude": 34.8477, "Longitude": -91.080467 }, "geometry": { "type": "Point", "coordinates": [ -91.080467, 34.8477 ] } },
{ "type": "Feature", "properties": { "Project Name": "Fairbanks Solar", "Latitude": 39.2175, "Longitude": -87.541667 }, "geometry": { "type": "Point", "coordinates": [ -87.541667, 39.2175 ] } },
{ "type": "Feature", "properties": { "Project Name": "Golden Plains Wind Project", "Latitude": 43.43063, "Longitude": -94.01641 }, "geometry": { "type": "Point", "coordinates": [ -94.01641, 43.43063 ] } },
{ "type": "Feature", "properties": { "Project Name": "Allegheny Thermal", "Latitude": 40.291017, "Longitude": -79.78821 }, "geometry": { "type": "Point", "coordinates": [ -79.78821, 40.291017 ] } },
{ "type": "Feature", "properties": { "Project Name": "Tip Top Solar", "Latitude": 32.35, "Longitude": -103.55 }, "geometry": { "type": "Point", "coordinates": [ -103.55, 32.35 ] } },
{ "type": "Feature", "properties": { "Project Name": "Camp Springs II Wind", "Latitude": 32.686455, "Longitude": -100.781274 }, "geometry": { "type": "Point", "coordinates": [ -100.781274, 32.686455 ] } },
{ "type": "Feature", "properties": { "Project Name": "Beech Ridge Energy Storage", "Latitude": 38.049061, "Longitude": -80.570539 }, "geometry": { "type": "Point", "coordinates": [ -80.570539, 38.049061 ] } },
{ "type": "Feature", "properties": { "Project Name": "Highland I Wind", "Latitude": 43.060792, "Longitude": -95.572678 }, "geometry": { "type": "Point", "coordinates": [ -95.572678, 43.060792 ] } },
{ "type": "Feature", "properties": { "Project Name": "Prairie Hills II Wind", "Latitude": 41.164357, "Longitude": -99.302771 }, "geometry": { "type": "Point", "coordinates": [ -99.302771, 41.164357 ] } },
{ "type": "Feature", "properties": { "Project Name": "Sandringham I", "Latitude": 44.511399, "Longitude": -79.025547 }, "geometry": { "type": "Point", "coordinates": [ -79.025547, 44.511399 ] } },
{ "type": "Feature", "properties": { "Project Name": "Wake", "Latitude": 33.840106, "Longitude": -101.102633 }, "geometry": { "type": "Point", "coordinates": [ -101.102633, 33.840106 ] } },
{ "type": "Feature", "properties": { "Project Name": "Los Ramones Thermal", "Latitude": 25.67611, "Longitude": -99.46083 }, "geometry": { "type": "Point", "coordinates": [ -99.46083, 25.67611 ] } },
{ "type": "Feature", "properties": { "Project Name": "Mount McDonald Wind", "Latitude": 54.155, "Longitude": -130.223 }, "geometry": { "type": "Point", "coordinates": [ -130.223, 54.155 ] } },
{ "type": "Feature", "properties": { "Project Name": "Bishop Hill I Wind", "Latitude": 41.193025, "Longitude": -90.086549 }, "geometry": { "type": "Point", "coordinates": [ -90.086549, 41.193025 ] } },
{ "type": "Feature", "properties": { "Project Name": "Bishop Hill III Wind", "Latitude": 41.211057, "Longitude": -90.276024 }, "geometry": { "type": "Point", "coordinates": [ -90.276024, 41.211057 ] } },
{ "type": "Feature", "properties": { "Project Name": "Nelson Expansion", "Latitude": 41.774452, "Longitude": -89.606826 }, "geometry": { "type": "Point", "coordinates": [ -89.606826, 41.774452 ] } },
{ "type": "Feature", "properties": { "Project Name": "Morgan's Corner Solar", "Latitude": 36.418939, "Longitude": -76.366218 }, "geometry": { "type": "Point", "coordinates": [ -76.366218, 36.418939 ] } },
{ "type": "Feature", "properties": { "Project Name": "Nelson Thermal", "Latitude": 41.774452, "Longitude": -89.606826 }, "geometry": { "type": "Point", "coordinates": [ -89.606826, 41.774452 ] } },
{ "type": "Feature", "properties": { "Project Name": "Roncevaux", "Latitude": 48.160311, "Longitude": -67.405012 }, "geometry": { "type": "Point", "coordinates": [ -67.405012, 48.160311 ] } },
{ "type": "Feature", "properties": { "Project Name": "Krupy Wind", "Latitude": 54.428362, "Longitude": 16.536099 }, "geometry": { "type": "Point", "coordinates": [ 16.536099, 54.428362 ] } },
{ "type": "Feature", "properties": { "Project Name": "Buckeye I Wind", "Latitude": 39.001955, "Longitude": -99.420704 }, "geometry": { "type": "Point", "coordinates": [ -99.420704, 39.001955 ] } },
{ "type": "Feature", "properties": { "Project Name": "Spring Canyon III", "Latitude": 40.976253, "Longitude": -103.051291 }, "geometry": { "type": "Point", "coordinates": [ -103.051291, 40.976253 ] } },
{ "type": "Feature", "properties": { "Project Name": "Grays Harbor Thermal", "Latitude": 46.968915, "Longitude": -123.479974 }, "geometry": { "type": "Point", "coordinates": [ -123.479974, 46.968915 ] } },
{ "type": "Feature", "properties": { "Project Name": "Lackawanna Thermal", "Latitude": 41.471535, "Longitude": -75.545493 }, "geometry": { "type": "Point", "coordinates": [ -75.545493, 41.471535 ] } },
{ "type": "Feature", "properties": { "Project Name": "Kossuth II", "Latitude": 42.981933, "Longitude": -94.11926 }, "geometry": { "type": "Point", "coordinates": [ -94.11926, 42.981933 ] } },
{ "type": "Feature", "properties": { "Project Name": "Ector County Thermal", "Latitude": 32.06999, "Longitude": -102.585855 }, "geometry": { "type": "Point", "coordinates": [ -102.585855, 32.06999 ] } },
{ "type": "Feature", "properties": { "Project Name": "Mexichem Altamira", "Latitude": 22.41222, "Longitude": -97.89389 }, "geometry": { "type": "Point", "coordinates": [ -97.89389, 22.41222 ] } },
{ "type": "Feature", "properties": { "Project Name": "Ida Grove II Wind", "Latitude": 42.367559, "Longitude": -95.526751 }, "geometry": { "type": "Point", "coordinates": [ -95.526751, 42.367559 ] } },
{ "type": "Feature", "properties": { "Project Name": "Ashtabula Wind", "Latitude": 47.096458, "Longitude": -97.885899 }, "geometry": { "type": "Point", "coordinates": [ -97.885899, 47.096458 ] } },
{ "type": "Feature", "properties": { "Project Name": "Flat Ridge III Wind", "Latitude": 37.63963, "Longitude": -98.16993 }, "geometry": { "type": "Point", "coordinates": [ -98.16993, 37.63963 ] } },
{ "type": "Feature", "properties": { "Project Name": "Beech Ridge Wind", "Latitude": 38.091358, "Longitude": -80.514389 }, "geometry": { "type": "Point", "coordinates": [ -80.514389, 38.091358 ] } },
{ "type": "Feature", "properties": { "Project Name": "Sundance", "Latitude": 36.559722, "Longitude": -98.749167 }, "geometry": { "type": "Point", "coordinates": [ -98.749167, 36.559722 ] } },
{ "type": "Feature", "properties": { "Project Name": "Grand Ridge IV Storage Expansion", "Latitude": 41.245811, "Longitude": -88.676194 }, "geometry": { "type": "Point", "coordinates": [ -88.676194, 41.245811 ] } },
{ "type": "Feature", "properties": { "Project Name": "Little Bear Wind", "Latitude": 37.648638, "Longitude": -102.425884 }, "geometry": { "type": "Point", "coordinates": [ -102.425884, 37.648638 ] } },
{ "type": "Feature", "properties": { "Project Name": "Grand Ridge Storage", "Latitude": 41.245811, "Longitude": -88.676194 }, "geometry": { "type": "Point", "coordinates": [ -88.676194, 41.245811 ] } },
{ "type": "Feature", "properties": { "Project Name": "Grand Ridge IV Storage", "Latitude": 41.245811, "Longitude": -88.676194 }, "geometry": { "type": "Point", "coordinates": [ -88.676194, 41.245811 ] } },
{ "type": "Feature", "properties": { "Project Name": "Prineville", "Latitude": 44.27317, "Longitude": -120.877325 }, "geometry": { "type": "Point", "coordinates": [ -120.877325, 44.27317 ] } },
{ "type": "Feature", "properties": { "Project Name": "Raleigh", "Latitude": 42.271701, "Longitude": -82.184914 }, "geometry": { "type": "Point", "coordinates": [ -82.184914, 42.271701 ] } },
{ "type": "Feature", "properties": { "Project Name": "Des Moulins I Wind", "Latitude": 46.165981, "Longitude": -71.351478 }, "geometry": { "type": "Point", "coordinates": [ -71.351478, 46.165981 ] } },
{ "type": "Feature", "properties": { "Project Name": "Nowy Jaroslaw", "Latitude": 54.403097, "Longitude": 16.517612 }, "geometry": { "type": "Point", "coordinates": [ 16.517612, 54.403097 ] } },
{ "type": "Feature", "properties": { "Project Name": "Wiekowice", "Latitude": 54.300631, "Longitude": 16.341855 }, "geometry": { "type": "Point", "coordinates": [ 16.341855, 54.300631 ] } },
{ "type": "Feature", "properties": { "Project Name": "Richland", "Latitude": 42.339651, "Longitude": -95.241787 }, "geometry": { "type": "Point", "coordinates": [ -95.241787, 42.339651 ] } },
{ "type": "Feature", "properties": { "Project Name": "Freeborn Wind", "Latitude": 43.588436, "Longitude": -93.193993 }, "geometry": { "type": "Point", "coordinates": [ -93.193993, 43.588436 ] } },
{ "type": "Feature", "properties": { "Project Name": "Independence Solar", "Latitude": 35.692308, "Longitude": -91.388483 }, "geometry": { "type": "Point", "coordinates": [ -91.388483, 35.692308 ] } },
{ "type": "Feature", "properties": { "Project Name": "Prairie Breeze III", "Latitude": 42.06867, "Longitude": -98.062087 }, "geometry": { "type": "Point", "coordinates": [ -98.062087, 42.06867 ] } },
{ "type": "Feature", "properties": { "Project Name": "Whispering Willow North", "Latitude": 42.62502, "Longitude": -93.20573 }, "geometry": { "type": "Point", "coordinates": [ -93.20573, 42.62502 ] } },
{ "type": "Feature", "properties": { "Project Name": "St. Clair", "Latitude": 42.896624, "Longitude": -82.397882 }, "geometry": { "type": "Point", "coordinates": [ -82.397882, 42.896624 ] } },
{ "type": "Feature", "properties": { "Project Name": "Sagamore", "Latitude": 33.795164, "Longitude": -103.36599 }, "geometry": { "type": "Point", "coordinates": [ -103.36599, 33.795164 ] } },
{ "type": "Feature", "properties": { "Project Name": "Marsh Hill", "Latitude": 42.178089, "Longitude": -77.506547 }, "geometry": { "type": "Point", "coordinates": [ -77.506547, 42.178089 ] } },
{ "type": "Feature", "properties": { "Project Name": "Coromuel", "Latitude": 24.112196, "Longitude": -110.595801 }, "geometry": { "type": "Point", "coordinates": [ -110.595801, 24.112196 ] } },
{ "type": "Feature", "properties": { "Project Name": "Upland Prairie", "Latitude": 43.17848, "Longitude": -95.30198 }, "geometry": { "type": "Point", "coordinates": [ -95.30198, 43.17848 ] } },
{ "type": "Feature", "properties": { "Project Name": "Badger Hollow Solar", "Latitude": 42.965083, "Longitude": -90.349592 }, "geometry": { "type": "Point", "coordinates": [ -90.349592, 42.965083 ] } },
{ "type": "Feature", "properties": { "Project Name": "Zephyr Wind", "Latitude": 42.563, "Longitude": -93.064 }, "geometry": { "type": "Point", "coordinates": [ -93.064, 42.563 ] } },
{ "type": "Feature", "properties": { "Project Name": "Forward 2 Wind", "Latitude": 43.565285, "Longitude": -88.523556 }, "geometry": { "type": "Point", "coordinates": [ -88.523556, 43.565285 ] } },
{ "type": "Feature", "properties": { "Project Name": "Hillsdale Wind", "Latitude": 41.935419, "Longitude": -84.479036 }, "geometry": { "type": "Point", "coordinates": [ -84.479036, 41.935419 ] } },
{ "type": "Feature", "properties": { "Project Name": "Tymien", "Latitude": 54.189597, "Longitude": 15.856346 }, "geometry": { "type": "Point", "coordinates": [ 15.856346, 54.189597 ] } },
{ "type": "Feature", "properties": { "Project Name": "Bettyhill I Wind", "Latitude": 58.515956, "Longitude": -4.166834 }, "geometry": { "type": "Point", "coordinates": [ -4.166834, 58.515956 ] } },
{ "type": "Feature", "properties": { "Project Name": "Rush Creek (DT)", "Latitude": null, "Longitude": null }, "geometry": null }
]
}
